{ "data": [{"item":{"address":"LB of Haringey","xs_id_field":1,"latitude":51.597916,"longitude":-0.086741,"category":"[empty]","spritey_":0}},
{"item":{"address":"Durham CC","xs_id_field":2,"latitude":44.0340458,"longitude":-120.7419548,"category":"[empty]","spritey_":0}},{"item":{"address":"Chichester","xs_id_field":3,"latitude":50.83761000000001,"longitude":-0.774936,"category":"[empty]","spritey_":0}},{"item":{"address":"Poole","xs_id_field":4,"latitude":50.71505,"longitude":-1.987248,"category":"[empty]","spritey_":0}},{"item":{"address":"City of York","xs_id_field":5,"latitude":53.95996510000001,"longitude":-1.0872979,"category":"[empty]","spritey_":0}},{"item":{"address":"Stockport MBC","xs_id_field":6,"latitude":53.406007,"longitude":-2.157354,"category":"[empty]","spritey_":0}},{"item":{"address":"Dudley MBC","xs_id_field":7,"latitude":52.52310259999999,"longitude":-2.1156408,"category":"[empty]","spritey_":0}},{"item":{"address":"LB of Islington","xs_id_field":8,"latitude":53.405338,"longitude":-2.988661,"category":"[empty]","spritey_":0}},{"item":{"address":"Southampton CC","xs_id_field":9,"latitude":50.905033,"longitude":-1.401856,"category":"[empty]","spritey_":0}},{"item":{"address":"Rotherham MBC","xs_id_field":10,"latitude":53.429199,"longitude":-1.360787,"category":"[empty]","spritey_":0}},{"item":{"address":"Wolverhampton CC","xs_id_field":11,"latitude":52.584774,"longitude":-2.129477,"category":"[empty]","spritey_":0}},{"item":{"address":"Preston CC","xs_id_field":12,"latitude":38.0061761,"longitude":-93.19560609999999,"category":"[empty]","spritey_":0}},{"item":{"address":"Cleveland","xs_id_field":13,"latitude":41.49932,"longitude":-81.6943605,"category":"[empty]","spritey_":0}},{"item":{"address":"Scarborough BC","xs_id_field":14,"latitude":49.14155969999999,"longitude":-122.9152099,"category":"[empty]","spritey_":0}},{"item":{"address":"Hambleton DC","xs_id_field":15,"latitude":38.9071923,"longitude":-77.0368707,"category":"[empty]","spritey_":0}},{"item":{"address":"Barnsley","xs_id_field":16,"latitude":53.55263,"longitude":-1.479726,"category":"[empty]","spritey_":0}},{"item":{"address":"Isle of Wight Council","xs_id_field":17,"latitude":50.7006641,"longitude":-1.2905612,"category":"[empty]","spritey_":0}},{"item":{"address":"Cornwall Council","xs_id_field":18,"latitude":50.260137,"longitude":-5.068741999999999,"category":"[empty]","spritey_":0}},{"item":{"address":"Todmorden","xs_id_field":19,"latitude":53.716344,"longitude":-2.0987969,"category":"[empty]","spritey_":0}},{"item":{"address":"Gloucester CC","xs_id_field":20,"latitude":-32.979797,"longitude":27.900303,"category":"[empty]","spritey_":0}},{"item":{"address":"West Lancashire DC","xs_id_field":21,"latitude":-29.613401,"longitude":30.36761,"category":"[empty]","spritey_":0}},{"item":{"address":"Bristol CC","xs_id_field":22,"latitude":36.5170164,"longitude":-82.25041460000001,"category":"[empty]","spritey_":0}},{"item":{"address":"Sheffield CC","xs_id_field":23,"latitude":-33.0318819,"longitude":27.879736,"category":"[empty]","spritey_":0}},{"item":{"address":"Huntingdonshire DC","xs_id_field":24,"latitude":-29.605653,"longitude":30.3231222,"category":"[empty]","spritey_":0}},{"item":{"address":"Waverley BC","xs_id_field":25,"latitude":49.22708919999999,"longitude":-123.0590733,"category":"[empty]","spritey_":0}},{"item":{"address":"LB of Bromley","xs_id_field":26,"latitude":51.427143,"longitude":-0.0324,"category":"[empty]","spritey_":0}},{"item":{"address":"LB of Enfield","xs_id_field":27,"latitude":51.64002199999999,"longitude":-0.047681,"category":"[empty]","spritey_":0}},{"item":{"address":"Thurrock Council","xs_id_field":28,"latitude":51.507202,"longitude":0.284655,"category":"[empty]","spritey_":0}},{"item":{"address":"LB of Brent","xs_id_field":29,"latitude":51.512238,"longitude":-0.1715,"category":"[empty]","spritey_":0}},{"item":{"address":"North Norfolk","xs_id_field":30,"latitude":36.8507689,"longitude":-76.28587259999999,"category":"[empty]","spritey_":0}},{"item":{"address":"Mid Sussex DC","xs_id_field":31,"latitude":38.9071923,"longitude":-77.0368707,"category":"[empty]","spritey_":0}},{"item":{"address":"Accrington","xs_id_field":32,"latitude":53.753609,"longitude":-2.37218,"category":"[empty]","spritey_":0}},{"item":{"address":"Test Valley","xs_id_field":33,"latitude":51.205934,"longitude":-1.491394,"category":"[empty]","spritey_":0}},{"item":{"address":"LB of Redbridge","xs_id_field":34,"latitude":51.58861,"longitude":0.0823976,"category":"[empty]","spritey_":0}},{"item":{"address":"Leicester CC","xs_id_field":35,"latitude":-32.9797982,"longitude":27.9002368,"category":"[empty]","spritey_":0}},{"item":{"address":"Kingston upon Hull CC","xs_id_field":36,"latitude":53.744771,"longitude":-0.3438661,"category":"[empty]","spritey_":0}},{"item":{"address":"Wiltshire Council","xs_id_field":37,"latitude":51.3163518,"longitude":-2.2099668,"category":"[empty]","spritey_":0}},{"item":{"address":"Cambridge CC","xs_id_field":38,"latitude":38.9252693,"longitude":-94.727983,"category":"[empty]","spritey_":0}},{"item":{"address":"Aylesford","xs_id_field":39,"latitude":51.304309,"longitude":0.47806,"category":"[empty]","spritey_":0}},{"item":{"address":"Manchester CC","xs_id_field":40,"latitude":53.48057379999999,"longitude":-2.2480121,"category":"[empty]","spritey_":0}},{"item":{"address":"East Riding Of Yorkshire Council","xs_id_field":41,"latitude":53.8413209,"longitude":-0.4288217,"category":"[empty]","spritey_":0}},{"item":{"address":"East Staffordshire BC","xs_id_field":42,"latitude":49.20454849999999,"longitude":-123.9812569,"category":"[empty]","spritey_":0}},{"item":{"address":"Bradford MDC","xs_id_field":43,"latitude":53.7921319,"longitude":-1.7531871,"category":"[empty]","spritey_":0}},{"item":{"address":"Rotherham BC","xs_id_field":44,"latitude":48.428272,"longitude":-123.361955,"category":"[empty]","spritey_":0}},{"item":{"address":"Craven DC","xs_id_field":45,"latitude":-33.9382576,"longitude":18.872437,"category":"[empty]","spritey_":0}},{"item":{"address":"Bedale","xs_id_field":46,"latitude":54.2887008,"longitude":-1.5933179,"category":"[empty]","spritey_":0}},{"item":{"address":"Harrogate BC","xs_id_field":47,"latitude":50.98088300000001,"longitude":-116.448761,"category":"[empty]","spritey_":0}},{"item":{"address":"Northallerton","xs_id_field":48,"latitude":54.337961,"longitude":-1.429959,"category":"[empty]","spritey_":0}},{"item":{"address":"Swinton","xs_id_field":49,"latitude":53.511443,"longitude":-2.3462325,"category":"[empty]","spritey_":0}},{"item":{"address":"Darlington District Council","xs_id_field":50,"latitude":54.55759399999999,"longitude":-1.8894408,"category":"[empty]","spritey_":0}},{"item":{"address":"Great Yarmouth","xs_id_field":51,"latitude":52.598233,"longitude":1.728047,"category":"[empty]","spritey_":0}},{"item":{"address":"LB of Waltham Forest","xs_id_field":52,"latitude":51.64002199999999,"longitude":-0.047681,"category":"[empty]","spritey_":0}},{"item":{"address":"LB of Wandsworth","xs_id_field":53,"latitude":51.512238,"longitude":-0.1715,"category":"[empty]","spritey_":0}},{"item":{"address":"Basildon DC","xs_id_field":54,"latitude":38.9071923,"longitude":-77.0368707,"category":"[empty]","spritey_":0}},{"item":{"address":"London","xs_id_field":55,"latitude":51.5073509,"longitude":-0.1277583,"category":"[empty]","spritey_":0}},{"item":{"address":"Worcester Regulatory Services","xs_id_field":56,"latitude":42.2625932,"longitude":-71.8022934,"category":"[empty]","spritey_":0}},{"item":{"address":"Redditch BC","xs_id_field":57,"latitude":52.30897,"longitude":-1.940936,"category":"[empty]","spritey_":0}},{"item":{"address":"LB of Hackney","xs_id_field":58,"latitude":51.53928399999999,"longitude":-0.05632,"category":"[empty]","spritey_":0}},{"item":{"address":"Birmingham City Council","xs_id_field":59,"latitude":52.4801886,"longitude":-1.9029372,"category":"[empty]","spritey_":0}},{"item":{"address":"Burton-on-Trent","xs_id_field":60,"latitude":52.81402809999999,"longitude":-1.6371359,"category":"[empty]","spritey_":0}},{"item":{"address":"Enfield","xs_id_field":61,"latitude":51.65159999999999,"longitude":-0.0837,"category":"[empty]","spritey_":0}},{"item":{"address":"York","xs_id_field":62,"latitude":53.95996510000001,"longitude":-1.0872979,"category":"[empty]","spritey_":0}},{"item":{"address":"Debenham","xs_id_field":63,"latitude":52.227101,"longitude":1.1805239,"category":"[empty]","spritey_":0}},{"item":{"address":"Frome","xs_id_field":64,"latitude":51.230751,"longitude":-2.320096,"category":"[empty]","spritey_":0}},{"item":{"address":"Wytham","xs_id_field":65,"latitude":51.775425,"longitude":-1.307819,"category":"[empty]","spritey_":0}},{"item":{"address":"Stoke-on-Trent","xs_id_field":66,"latitude":53.002668,"longitude":-2.179404,"category":"[empty]","spritey_":0}},{"item":{"address":"Newbury","xs_id_field":67,"latitude":51.401409,"longitude":-1.3231139,"category":"[empty]","spritey_":0}},{"item":{"address":"Walsall Council","xs_id_field":68,"latitude":52.5864638,"longitude":-1.9808723,"category":"[empty]","spritey_":0}},{"item":{"address":"Wirral MBC","xs_id_field":69,"latitude":53.3333333,"longitude":-3.0833333,"category":"[empty]","spritey_":0}},{"item":{"address":"Shropshire Council","xs_id_field":70,"latitude":52.7050162,"longitude":-2.7315754,"category":"[empty]","spritey_":0}},{"item":{"address":"Harborough DC","xs_id_field":71,"latitude":38.9071923,"longitude":-77.0368707,"category":"[empty]","spritey_":0}},{"item":{"address":"Hereford","xs_id_field":72,"latitude":52.05639799999999,"longitude":-2.715974,"category":"[empty]","spritey_":0}},{"item":{"address":"Liverpool City Council","xs_id_field":73,"latitude":43.107977,"longitude":-76.219684,"category":"[empty]","spritey_":0}},{"item":{"address":"Preston BC","xs_id_field":74,"latitude":49.555317,"longitude":-115.961581,"category":"[empty]","spritey_":0}},{"item":{"address":"Sandwell BC","xs_id_field":75,"latitude":49.289679,"longitude":-123.130667,"category":"[empty]","spritey_":0}},{"item":{"address":"Staffordshire Moorlands DC","xs_id_field":76,"latitude":38.9071923,"longitude":-77.0368707,"category":"[empty]","spritey_":0}},{"item":{"address":"Wyre","xs_id_field":77,"latitude":59.124292,"longitude":-2.971426,"category":"[empty]","spritey_":0}},{"item":{"address":"Cumbria","xs_id_field":78,"latitude":54.5772323,"longitude":-2.7974835,"category":"[empty]","spritey_":0}},{"item":{"address":"Lancaster CC","xs_id_field":79,"latitude":38.9252693,"longitude":-94.727983,"category":"[empty]","spritey_":0}},{"item":{"address":"Charnwood BC","xs_id_field":80,"latitude":52.7658985,"longitude":-1.2465829,"category":"[empty]","spritey_":0}},{"item":{"address":"Ashfield District Council","xs_id_field":81,"latitude":53.10025,"longitude":-1.249609,"category":"[empty]","spritey_":0}},{"item":{"address":"Mid Suffolk DC","xs_id_field":82,"latitude":38.9071923,"longitude":-77.0368707,"category":"[empty]","spritey_":0}},{"item":{"address":"South Norfolk DC","xs_id_field":83,"latitude":38.989398,"longitude":-77.098075,"category":"[empty]","spritey_":0}},{"item":{"address":"South Kesteven DC","xs_id_field":84,"latitude":38.9071923,"longitude":-77.0368707,"category":"[empty]","spritey_":0}},{"item":{"address":"City of London Council","xs_id_field":85,"latitude":51.52158799999999,"longitude":-0.160074,"category":"[empty]","spritey_":0}},{"item":{"address":"Lincoln","xs_id_field":86,"latitude":40.809722,"longitude":-96.67527799999999,"category":"[empty]","spritey_":0}},{"item":{"address":"Wickford","xs_id_field":87,"latitude":51.611309,"longitude":0.52068,"category":"[empty]","spritey_":0}},{"item":{"address":"Maldon DC","xs_id_field":88,"latitude":38.9071923,"longitude":-77.0368707,"category":"[empty]","spritey_":0}},{"item":{"address":"Attlebrough","xs_id_field":89,"latitude":52.518064,"longitude":1.015527,"category":"[empty]","spritey_":0}},{"item":{"address":"Eastleigh BC","xs_id_field":90,"latitude":49.10611309999999,"longitude":-122.6497496,"category":"[empty]","spritey_":0}},{"item":{"address":"Rother DC","xs_id_field":91,"latitude":4.634119,"longitude":-74.083212,"category":"[empty]","spritey_":0}},{"item":{"address":"Reading","xs_id_field":92,"latitude":40.3356483,"longitude":-75.9268747,"category":"[empty]","spritey_":0}},{"item":{"address":"South Northamptonshire Council","xs_id_field":93,"latitude":52.1279431,"longitude":-1.0012209,"category":"[empty]","spritey_":0}},{"item":{"address":"Vale of White Horse DC","xs_id_field":94,"latitude":38.9071923,"longitude":-77.0368707,"category":"[empty]","spritey_":0}},{"item":{"address":"Portsmouth CC","xs_id_field":95,"latitude":38.6867811,"longitude":-82.9063425,"category":"[empty]","spritey_":0}},{"item":{"address":"Basingstoke","xs_id_field":96,"latitude":51.26654,"longitude":-1.0923964,"category":"[empty]","spritey_":0}},{"item":{"address":"LB of Enfield","xs_id_field":97,"latitude":51.64002199999999,"longitude":-0.047681,"category":"[empty]","spritey_":0}},{"item":{"address":"Chiltern DC","xs_id_field":98,"latitude":38.9071923,"longitude":-77.0368707,"category":"[empty]","spritey_":0}},{"item":{"address":"Mid Devon DC","xs_id_field":99,"latitude":38.9071923,"longitude":-77.0368707,"category":"[empty]","spritey_":0}},{"item":{"address":"Tewkesbury BC","xs_id_field":100,"latitude":51.992265,"longitude":-2.15796,"category":"[empty]","spritey_":0}},{"item":{"address":"West Dorset DC","xs_id_field":101,"latitude":38.9685472,"longitude":-77.10008409999999,"category":"[empty]","spritey_":0}},{"item":{"address":"South Somerset DC","xs_id_field":102,"latitude":38.9659438,"longitude":-77.0960893,"category":"[empty]","spritey_":0}},{"item":{"address":"Mendip","xs_id_field":103,"latitude":51.1562881,"longitude":0.8669243999999999,"category":"[empty]","spritey_":0}},{"item":{"address":"Exeter CC","xs_id_field":104,"latitude":42.794989,"longitude":-89.5556107,"category":"[empty]","spritey_":0}},{"item":{"address":"East Devon DC","xs_id_field":105,"latitude":38.9934738,"longitude":-77.007854,"category":"[empty]","spritey_":0}},{"item":{"address":"Stroud","xs_id_field":106,"latitude":51.745734,"longitude":-2.217758,"category":"[empty]","spritey_":0}},{"item":{"address":"Breckland Council","xs_id_field":107,"latitude":52.4366064,"longitude":0.8849462,"category":"[empty]","spritey_":0}},{"item":{"address":"East Cambridgeshire District Council","xs_id_field":108,"latitude":52.4008888,"longitude":0.2639967,"category":"[empty]","spritey_":0}},{"item":{"address":"Central Bedfordshire Council","xs_id_field":109,"latitude":51.89263099999999,"longitude":-0.531554,"category":"[empty]","spritey_":0}},{"item":{"address":"Ashford BC","xs_id_field":110,"latitude":49.163761,"longitude":-122.8138914,"category":"[empty]","spritey_":0}},{"item":{"address":"Cheshire East Council","xs_id_field":111,"latitude":53.1451472,"longitude":-2.3702495,"category":"[empty]","spritey_":0}},{"item":{"address":"Birmingham CC","xs_id_field":112,"latitude":52.5102643,"longitude":-1.9067342,"category":"[empty]","spritey_":0}},{"item":{"address":"Birmingham","xs_id_field":113,"latitude":33.5206608,"longitude":-86.80248999999999,"category":"[empty]","spritey_":0}},{"item":{"address":"Blackburn with Darwen BC","xs_id_field":114,"latitude":53.7451634,"longitude":-2.4635814,"category":"[empty]","spritey_":0}},{"item":{"address":"Bromsgrove DC","xs_id_field":115,"latitude":38.9071923,"longitude":-77.0368707,"category":"[empty]","spritey_":0}},{"item":{"address":"Cannock Chase Council","xs_id_field":116,"latitude":52.6923743,"longitude":-2.0285657,"category":"[empty]","spritey_":0}},{"item":{"address":"Colchester BC","xs_id_field":117,"latitude":49.15162,"longitude":-123.176433,"category":"[empty]","spritey_":0}},{"item":{"address":"Coventry CC","xs_id_field":118,"latitude":52.410187,"longitude":-1.510922,"category":"[empty]","spritey_":0}},{"item":{"address":"West Devon BC","xs_id_field":119,"latitude":49.3784801,"longitude":-119.5641244,"category":"[empty]","spritey_":0}},{"item":{"address":"Bournemouth Borough Council","xs_id_field":120,"latitude":50.7223583,"longitude":-1.8822834,"category":"[empty]","spritey_":0}},{"item":{"address":"Dover DC","xs_id_field":121,"latitude":38.9067782,"longitude":-77.1058118,"category":"[empty]","spritey_":0}},{"item":{"address":"Daventry DC","xs_id_field":122,"latitude":38.8511101,"longitude":-76.916108,"category":"[empty]","spritey_":0}},{"item":{"address":"Epping Forest DC","xs_id_field":123,"latitude":51.60952,"longitude":0.230871,"category":"[empty]","spritey_":0}},{"item":{"address":"East Hampshire DC","xs_id_field":124,"latitude":38.944627,"longitude":-77.01813299999999,"category":"[empty]","spritey_":0}},{"item":{"address":"East Herts Council","xs_id_field":125,"latitude":51.793018,"longitude":-0.0819427,"category":"[empty]","spritey_":0}},{"item":{"address":"Eden DC","xs_id_field":126,"latitude":38.8661129,"longitude":-76.9319103,"category":"[empty]","spritey_":0}},{"item":{"address":"East Dorset District Council","xs_id_field":127,"latitude":50.817908,"longitude":-1.98334,"category":"[empty]","spritey_":0}},{"item":{"address":"Braintree DC","xs_id_field":128,"latitude":38.9071923,"longitude":-77.0368707,"category":"[empty]","spritey_":0}},{"item":{"address":"Chelmsford CC","xs_id_field":129,"latitude":51.73489,"longitude":0.47179,"category":"[empty]","spritey_":0}},{"item":{"address":"Fareham BC","xs_id_field":130,"latitude":49.2358321,"longitude":-122.9275274,"category":"[empty]","spritey_":0}},{"item":{"address":"Wyre Forest DC","xs_id_field":131,"latitude":38.9071923,"longitude":-77.0368707,"category":"[empty]","spritey_":0}},{"item":{"address":"North East Lincolnshire Council","xs_id_field":132,"latitude":53.5651672,"longitude":-0.0814574,"category":"[empty]","spritey_":0}},{"item":{"address":"Medway Council","xs_id_field":133,"latitude":51.3889903,"longitude":0.5240876999999999,"category":"[empty]","spritey_":0}},{"item":{"address":"RB of Greenwich","xs_id_field":134,"latitude":51.48257659999999,"longitude":-0.0076589,"category":"[empty]","spritey_":0}},{"item":{"address":"West Lindsey DC","xs_id_field":135,"latitude":38.9723022,"longitude":-77.05459789999999,"category":"[empty]","spritey_":0}},{"item":{"address":"LB of Havering","xs_id_field":136,"latitude":51.577924,"longitude":0.2120829,"category":"[empty]","spritey_":0}},{"item":{"address":"LB of Hillingdon","xs_id_field":137,"latitude":51.5351832,"longitude":-0.4481378,"category":"[empty]","spritey_":0}},{"item":{"address":"Chorley Council","xs_id_field":138,"latitude":53.65483130000001,"longitude":-2.6295072,"category":"[empty]","spritey_":0}},{"item":{"address":"Kirklees Council","xs_id_field":139,"latitude":53.6443844,"longitude":-1.7850086,"category":"[empty]","spritey_":0}},{"item":{"address":"Knowsley Council","xs_id_field":140,"latitude":53.4226812,"longitude":-2.7787999,"category":"[empty]","spritey_":0}},{"item":{"address":"Leeds City Council","xs_id_field":141,"latitude":53.7765338,"longitude":-1.5156364,"category":"[empty]","spritey_":0}},{"item":{"address":"South Holland DC","xs_id_field":142,"latitude":38.8014231,"longitude":-77.060153,"category":"[empty]","spritey_":0}},{"item":{"address":"Waveney DC","xs_id_field":143,"latitude":38.9071923,"longitude":-77.0368707,"category":"[empty]","spritey_":0}},{"item":{"address":"Warwick DC","xs_id_field":144,"latitude":38.9666375,"longitude":-77.0934312,"category":"[empty]","spritey_":0}},{"item":{"address":"Luton BC","xs_id_field":145,"latitude":49.1532574,"longitude":-123.1352967,"category":"[empty]","spritey_":0}},{"item":{"address":"Lewes DC","xs_id_field":146,"latitude":-34.0604609,"longitude":18.8417679,"category":"[empty]","spritey_":0}},{"item":{"address":"Lancaster City Council","xs_id_field":147,"latitude":40.040282,"longitude":-76.30439799999999,"category":"[empty]","spritey_":0}},{"item":{"address":"Lancashire City Council","xs_id_field":148,"latitude":53.9690089,"longitude":-2.6276908,"category":"[empty]","spritey_":0}},{"item":{"address":"Suffolk Coastal DC","xs_id_field":149,"latitude":38.9071923,"longitude":-77.0368707,"category":"[empty]","spritey_":0}},{"item":{"address":"LB of Merton","xs_id_field":150,"latitude":51.382668,"longitude":-0.106897,"category":"[empty]","spritey_":0}},{"item":{"address":"LBof Merton","xs_id_field":151,"latitude":51.382668,"longitude":-0.106897,"category":"[empty]","spritey_":0}},{"item":{"address":"Mendip DC","xs_id_field":152,"latitude":-30.9256318,"longitude":30.3050129,"category":"[empty]","spritey_":0}},{"item":{"address":"North East Derbyshire DC","xs_id_field":153,"latitude":52.78295809999999,"longitude":-1.5582849,"category":"[empty]","spritey_":0}},{"item":{"address":"Nottingham City Council","xs_id_field":154,"latitude":52.94803599999999,"longitude":-1.144777,"category":"[empty]","spritey_":0}},{"item":{"address":"North Norfolk DC","xs_id_field":155,"latitude":38.989398,"longitude":-77.098075,"category":"[empty]","spritey_":0}},{"item":{"address":"North Dorset DC","xs_id_field":156,"latitude":38.9685472,"longitude":-77.10008409999999,"category":"[empty]","spritey_":0}},{"item":{"address":"Newcastle Under Lyme BC","xs_id_field":157,"latitude":53.0355456,"longitude":-2.2256426,"category":"[empty]","spritey_":0}},{"item":{"address":"South Norfolk Council","xs_id_field":158,"latitude":52.4442044,"longitude":1.1075401,"category":"[empty]","spritey_":0}},{"item":{"address":"Newark & Sherwood District Council","xs_id_field":159,"latitude":40.735657,"longitude":-74.1723667,"category":"[empty]","spritey_":0}},{"item":{"address":"North Tyneside Council","xs_id_field":160,"latitude":55.02269,"longitude":-1.509429,"category":"[empty]","spritey_":0}},{"item":{"address":"North West Leicestershire DC","xs_id_field":161,"latitude":38.9071923,"longitude":-77.0368707,"category":"[empty]","spritey_":0}},{"item":{"address":"London Borough of Newham","xs_id_field":162,"latitude":51.5255162,"longitude":0.0352163,"category":"[empty]","spritey_":0}},{"item":{"address":"West Berkshire Council","xs_id_field":163,"latitude":51.4801312,"longitude":-1.4411471,"category":"[empty]","spritey_":0}},{"item":{"address":"Bolsover DC","xs_id_field":164,"latitude":38.9071923,"longitude":-77.0368707,"category":"[empty]","spritey_":0}},{"item":{"address":"Oldham Council","xs_id_field":165,"latitude":53.5516762,"longitude":-2.0904773,"category":"[empty]","spritey_":0}},{"item":{"address":"West Lancashire Borough Council","xs_id_field":166,"latitude":53.5681757,"longitude":-2.8798634,"category":"[empty]","spritey_":0}},{"item":{"address":"Plymouth CC","xs_id_field":167,"latitude":37.0373898,"longitude":-78.25205129999999,"category":"[empty]","spritey_":0}},{"item":{"address":"Wyre Council","xs_id_field":168,"latitude":53.850995,"longitude":-2.989482,"category":"[empty]","spritey_":0}},{"item":{"address":"Borough of Poole","xs_id_field":169,"latitude":50.8013337,"longitude":-1.9885624,"category":"[empty]","spritey_":0}},{"item":{"address":"Peterborough CC","xs_id_field":170,"latitude":52.56949849999999,"longitude":-0.2405299,"category":"[empty]","spritey_":0}},{"item":{"address":"Rochford DC","xs_id_field":171,"latitude":38.9071923,"longitude":-77.0368707,"category":"[empty]","spritey_":0}},{"item":{"address":"Redbridge BC","xs_id_field":172,"latitude":51.546368,"longitude":0.094873,"category":"[empty]","spritey_":0}},{"item":{"address":"Rochdale MBC","xs_id_field":173,"latitude":53.5900565,"longitude":-2.2057625,"category":"[empty]","spritey_":0}},{"item":{"address":"Runnymede BC","xs_id_field":174,"latitude":49.259058,"longitude":-122.8734204,"category":"[empty]","spritey_":0}},{"item":{"address":"Sedgemoor DC","xs_id_field":175,"latitude":51.2811977,"longitude":-2.9503997,"category":"[empty]","spritey_":0}},{"item":{"address":"Slough BC","xs_id_field":176,"latitude":49.180566,"longitude":-122.1083885,"category":"[empty]","spritey_":0}},{"item":{"address":"North Lincolnshire Council","xs_id_field":177,"latitude":53.5429656,"longitude":-0.7367765,"category":"[empty]","spritey_":0}},{"item":{"address":"South Tyneside MBC","xs_id_field":178,"latitude":54.995098,"longitude":-1.428842,"category":"[empty]","spritey_":0}},{"item":{"address":"Sutton BC","xs_id_field":179,"latitude":49.6174515,"longitude":-125.034358,"category":"[empty]","spritey_":0}},{"item":{"address":"Swale BC","xs_id_field":180,"latitude":48.8198839,"longitude":-125.1452405,"category":"[empty]","spritey_":0}},{"item":{"address":"LB of Southwark","xs_id_field":181,"latitude":51.4724385,"longitude":-0.0768027,"category":"[empty]","spritey_":0}},{"item":{"address":"Trafford Borough Council","xs_id_field":182,"latitude":53.4252011,"longitude":-2.3199202,"category":"[empty]","spritey_":0}},{"item":{"address":"Taunton Deane Borough Council","xs_id_field":183,"latitude":51.02103,"longitude":-3.106749,"category":"[empty]","spritey_":0}},{"item":{"address":"Telford & Wrekin Council","xs_id_field":184,"latitude":52.6758977,"longitude":-2.45028,"category":"[empty]","spritey_":0}},{"item":{"address":"South Hams District Council","xs_id_field":185,"latitude":50.431467,"longitude":-3.709194,"category":"[empty]","spritey_":0}},{"item":{"address":"South Northampton Council","xs_id_field":186,"latitude":52.3119514,"longitude":-1.1186913,"category":"[empty]","spritey_":0}},{"item":{"address":"Uttlesford DC","xs_id_field":187,"latitude":38.9071923,"longitude":-77.0368707,"category":"[empty]","spritey_":0}},{"item":{"address":"North Somerset Council","xs_id_field":188,"latitude":51.3454364,"longitude":-2.9768753,"category":"[empty]","spritey_":0}},{"item":{"address":"Calderdale Council","xs_id_field":189,"latitude":53.72434500000001,"longitude":-1.860682,"category":"[empty]","spritey_":0}},{"item":{"address":"Chesterfield Borough Council","xs_id_field":190,"latitude":53.2366047,"longitude":-1.432369,"category":"[empty]","spritey_":0}},{"item":{"address":"Mole Valley DC","xs_id_field":191,"latitude":38.9071923,"longitude":-77.0368707,"category":"[empty]","spritey_":0}},{"item":{"address":"Wigan","xs_id_field":192,"latitude":53.54544,"longitude":-2.637474,"category":"[empty]","spritey_":0}},{"item":{"address":"Wokingham BC","xs_id_field":193,"latitude":51.410457,"longitude":-0.833861,"category":"[empty]","spritey_":0}},{"item":{"address":"South Staffordshire Council","xs_id_field":194,"latitude":52.62564,"longitude":-2.191974,"category":"[empty]","spritey_":0}},{"item":{"address":"Bath & NE Somerset","xs_id_field":195,"latitude":-30.9216917,"longitude":30.3055679,"category":"[empty]","spritey_":0}},{"item":{"address":"Barnsley Metropolitan Borough Council","xs_id_field":196,"latitude":53.5542135,"longitude":-1.4827483,"category":"[empty]","spritey_":0}},{"item":{"address":"Wakefield MDC","xs_id_field":197,"latitude":53.6746327,"longitude":-1.3600646,"category":"[empty]","spritey_":0}},{"item":{"address":"Wakefield MDC","xs_id_field":198,"latitude":53.6746327,"longitude":-1.3600646,"category":"[empty]","spritey_":0}}]}