code;name;street;city;postalcode;lat;lng
<<<<<<< HEAD
HR 10 EU;PIK VRBOVEC plus d.o.o.;Zagrebačka 148;Vrbovec;10340;45.8845609;16.4049309
HR 1003 EU;BURETIĆ BREGI d.o.o.;Bregi, Anđeli 74b;Matulji;51211;45.3636807;14.3244359
HR 1006 EU;MESNICE BRAĆA PALIĆ d.o.o.;Paukovečka cesta 36, Goričica;Donja Zelina;10382;45.9113619;16.2323638
HR 1013 EU;DIM I SOL, vl. Ivica Alvir;Ulica II 94;Zemunik Donji;23222;44.0974238;15.3520646
HR 1015 EU;PALEKA, mesarsko - trgovački obrt, vl. Mladen Paleka;Ulica II 112a;Zemunik Donji;23223;44.1050024;15.3794791
HR 1016 EU;MEL, vl. Jakov Lovrić;Hrvace 223 A;Hrvace;21233;43.7693219;16.6145344
HR 1028 EU;MESNICE KLARIĆ j.d.o.o.;Ante Trlaje Antića 19;Šibenik;22000;43.7519614;15.8815064
HR 1035 EU;MESOPROMET d.o.o.;M. Krleže br. 31.;Pula;52100;44.8702281;13.8455311
HR 1040 EU;STANIĆ d.o.o.;Mlini, Gornja Čibača 16;Mlini;20207;42.6236872;18.2082717
HR 1049 EU;PRODUKT KOMERC d.o.o.;Heki, Žbrlini 102;Pazin;52000;45.2391995;13.9363313
HR 1061 EU;Trgovačko proizvodni obrt ŠARIĆ, vl. Milan Šarić;Divuljska 5;Zagreb;10000;45.7433883;16.0147436
HR 107 EU;CENTAURUS d.o.o.;VIII. Mediteranskih igara 9/1;Split;21000;43.5167714;16.4269279
HR 1070 EU;ROLI d.o.o.;Novakova 53;Split;21000;43.5116383;16.4399659
HR 1072 EU;MINI MLJEKARA VERONIKA d.o.o.;Put Matije Gupca 5;Desinić;49216;46.1479340;15.6688416
HR 1075 EU;TRGOTRENTA d.o.o.;Osiječka 47;Rijeka;51000;45.3267976;14.4422080
HR 1076 EU;PODRAVKA d.d.;Ante Starčevića 32;Koprivnica;48000;46.1688323;16.8188577
HR 1077 EU;PODRAVKA d.d. - Tvornica dječje hrane i kremnih namaza;Danica 16;Koprivnica;48000;46.1889634;16.8396435
HR 1080 EU;KRAŠ d.d.;Ravnice 48;Zagreb;10000;45.8211895;16.0287009
HR 1096 EU;KONES - BI d.o.o.;Veliki Pašijan 67;Garešnica;43280;45.5876968;16.9318289
HR 1099 EU;AGROKOKA - PULA d.o.o.;Valmade 58;Pula;52100;44.8715958;13.8786442
HR 11 EU;LEDO plus d.o.o.;M. Čavića 7;Zagreb;10000;45.8130967;15.9772795
HR 1101 EU;PIK VRBOVEC plus d.o.o.;Marijana Čavića 1;Zagreb;10000;45.8022386;16.0337660
HR 1101-1 EU;ZVIJEZDA plus d.o.o.;Marijana Čavića 1;Zagreb;10000;45.8022386;16.0337660
HR 1102 EU;Klaonica, proizvodnjai prerada mesa, vl. Mario Jagodanović;sveti Bartola 37, Sibinj;Sibinj;35252;45.1903144;17.9095187
HR 1105 EU;MONTANA PLUS d.o.o.;Planinska b.b.;Zagreb;10000;45.8130967;15.9772795
HR 1106 EU;MESARSKO - TRGOVAČKI OBRT MESNICA LEPUR, VL. DRAŽEN LEPUR;Donji Lepuri b.b.;Benkovac;23420;44.0333553;15.6128513
HR 1107 EU;DRNIŠKE DELICIJE MARAN d.o.o.;Ćevidi 11, Trbounje;Drniš;22320;43.8602746;16.1557855
HR 1110 EU;BIOGAL d.o.o.;Milke Trnine 20, Donji Daruvar;Daruvar;43500;45.5928272;17.2237617
HR 1111 EU;NAF PROMET d.o.o.;A. Šenoe 15, Lužan;Belovar;10363;45.8986869;16.8421977
HR 1112 EU;OBRT ZA PROIZVODNJU, PRERADU I KONZERVIRANJE MESA I MESNIH PROIZVODA BOĐIRKOVIĆ, VL. ŽIVOJIN BOĐIRKOVIĆ;Školska 14;Borovo;32227;45.4063669;18.9811482
HR 1117 EU;VINDIJA d.o.o. - DC Poreč;Karla Huguesa 21;Poreč;52440;45.2033137;13.6347910
HR 1120 EU;JELENIĆ d.o.o.;Slavčići 177;Sveti Petar u šumi;52404;45.1816824;13.8641100
HR 1123 EU;PRŠUT - POSEDARJE d.o.o.;M.Vedrića 8;Posedarje;23242;44.2111732;15.4776951
HR 1128 EU;PO POROPAT, vl. Igor Poropat;Kirmenjak 13;Poreč;52440;45.2271961;13.5957333
HR 1130 EU;ROŽANA ČERVAR - pakirni centar za jaja;Sveti Servul 7b;Novigrad;52466;45.3317937;13.5817657
HR 1131 EU;MESNICA ERSTIĆ, VL. ANTE ERSTIĆ;Zagreben b.b.;Baška Voda;21320;43.3646282;16.9630244
HR 1135 EU;BAKALAR PROIZVODNJA j.d.o.o.;Jamine 34a;Zagreb;10000;45.8259971;15.8812053
HR 1141 EU;NATURA d.o.o.;Kralja Zvonimira 42 A;Vinkovci;32100;45.2903423;18.8063493
HR 1144 EU;TO HOBOTNICA;Nikole Tesle 35;Duga Resa;47250;45.4508875;15.4919530
HR 1148 EU;P. I. PROM d.o.o.;V. Kolandera 1;Varaždin;42000;46.3079645;16.3378198
HR 115 EU;JOSIP HERMAN;Donji Pustakovec 113;Prelog;40323;46.3366064;16.6147940
HR 1150 EU;MESNICA JAŽIĆ, vl. Sveto Jažić;Glavina Gornja 18a;Imotski;21260;43.4585995;17.2076996
HR 1152 EU;LORIMEX d.o.o.;Marčana 328;Marčana;52206;44.9558431;13.9560445
HR 1153 EU;ZVEČEVO d.d.;Kralja Zvonimira 1;Požega;34000;45.3400330;17.6808870
HR 1156 EU;Proizvodni, trgovački i ugostiteljski obrt KARLO, vl. Stjepan Ortović;Temovec b.b.;Sveti Križ Začretje;49223;46.0800162;15.9067264
HR 1165 EU;Mesarsko trgovački obrt BINGULA, vl. Boris Bingula;Veliko brdo 8a;Popovača;44317;45.5622724;16.6401349
HR 1166 EU;BENIMA d.o.o.;Skopska 32;Karlovac;47000;45.4794461;15.5445079
HR 1169 EU;SIRANA IPAK d.o.o.;Put Čikole 3;Pakovo Selo;22320;43.8167546;16.0925292
HR 1174 EU;PUNTICA d.o.o.;Ćoze 18;Vinjerac;23247;44.2400219;15.4806249
HR 1176 EU;MAESTRALE, vl. Davor Bertović;Vladimira Gortana 16;Veli Lošinj;51551;44.5201529;14.5026814
HR 1180 EU;PERADARSTVO OBRUBIĆ;Krušljevo Selo 64;Oroslavje;49243;45.9962496;15.9144491
HR 1184 EU;ALDIN BEGOVIĆ;Čehovec 121;Prelog;40323;46.3366064;16.6147940
HR 1193 EU;MESNA INDUSTRIJA ŠAKIĆ d.o.o.;Vlasača 6;Šestanovac;21250;43.4536242;16.9120532
HR 1198 EU;MESARSKA RADNJA, vl. Antonio Karakaš;Frankopanska 12;Brinje;53260;45.0053822;15.1388515
HR 1199 EU;MESNICA PRELEC d.o.o.;Harambašićeva 42;Strmec Samoborski;10434;45.8106060;15.7867626
HR 120 EU;VIR 1898 MESNA INDUSTRIJA d.o.o.;Školjić 16;Rijeka;51000;45.3286951;14.4460743
HR 1217 EU;MESNICA MARKET ŽUŽIĆ;Zagrebačka b.b.;Krk;51500;45.0269806;14.5752862
HR 1219 EU;OBRT BAK, vl. Željko Bak;Kneza Domagoja 30;Vinkovci;32100;45.2830643;18.8142553
HR 1221 EU;STANIĆ d.o.o.;Marinići b.b., Rijeka - PC Gramat;Viškovo;51216;45.3780491;14.3858441
HR 1237 EU;PAUSIN d.o.o.;Kortina 48;Savudrija;52475;45.5007791;13.5044472
HR 1244 EU;MESARSKO - TRGOVAČKA RADNJA, vl. Zlatko Uremović;Ledenice b.b., Ledenice;Ledenice;51251;45.1367125;14.8410058
HR 1250 EU;EUROPA STAR d.o.o. - Supermarket Dimeglio;Trg 1. istarske brigade 12;Pula;52100;44.8770652;13.8575643
HR 1254 EU;MESNICA DAMIR, vl. Damir Spinčić;Put Luskino b.b.;Matulji;51211;45.3636807;14.3244359
HR 1257 EU;VARŽAK-M;Vrbovo Posavsko 54, Orle;Velika Gorica;10410;45.7155672;16.0717164
HR 1260 EU;Mesarnica IKIĆ, mesarsko - trgovački obrt, vl. Mate Ikić;Gorica 152;Sukošan;23206;44.0463805;15.3145054
HR 1262 EU;PERADARNIK GUNJA, vl. Ilija Lučić;T. Pejića 51;Gunja;32260;44.8879270;18.8264350
HR 127 EU;SABLIĆ - DUBRAVA d.o.o.;Trg Slobode 10;Dubrava;10342;45.8376353;16.5369237
HR 1274 EU;KORNAT ITTICA d.o.o.;Škabrnjska ulica 5;Pakoštane;23211;43.9082721;15.5060948
HR 1282 EU;KRAŠ d.o.o.;Vukovarska cesta 209/a;Osijek;31000;45.5530369;18.7353095
HR 1287 EU;BROSS TRADE d.o.o.;4. Gardijske 51, Kamen;Split;21000;43.5185096;16.5292221
HR 1290 EU;SUPER - MES d.o.o.;Bana Josipa Jelačića 146;Samobor;10430;45.8130149;15.7068359
HR 1304 EU;VINDIJA d.o.o.;Uvala Bregdetti 23;Zadar;23000;44.1168594;15.2353257
HR 1308 EU;MOJA TVRTKA d.o.o.;Jurja Dalmatinca 6;Samobor;10430;45.8071686;15.7291170
HR 1312 EU;MLJEKARA LATUS d.o.o.;Gornji Orbanići 12/d;Žminj;52341;45.1439098;13.9086751
HR 1315 EU;SPAJIĆ NOVI d.o.o.;Put Blaca 62;Solin;21210;43.5636915;16.5075470
HR 1316 EU;PERUTNINA PTUJ - PIPO d.o.o.;R. Steinera 7;Čakovec;40000;46.3892305;16.4368593
HR 1318 EU;KONZUM plus d.o.o.;Marijana Čavića 1a;Zagreb;10000;45.7993304;16.0312320
HR 1318-1 EU;LEDO plus d.o.o.;Marijana Čavića 1a;Zagreb;10000;45.7993304;16.0312320
HR 1326 EU;STANIĆ d.o.o.;Vukovarska 318;Osijek;31000;45.5566434;18.6880842
HR 1333 EU;STANIĆ d.o.o.;Slavonska avenija 22;Zagreb;10000;45.7963891;16.0311846
HR 1333-1 EU;DUKAT d.d.;Slavonska avenija 22;Zagreb;10000;45.7963891;16.0311846
HR 1334 EU;BRANKA d.o.o.;Optujska 182;Varaždin;42000;46.3128024;16.3301488
HR 1335 EU;RIBARSKA ZADRUGA KOMIŽA;Hrvatskih iseljenika 4;Komiža;21485;43.0413407;16.1141622
HR 135 EU;Domaći pilići ANTOLKOVIĆ, vl. Zlatko Antolković;Dragutina Domjanića 16;Adamovec;10363;45.8989988;16.1655039
HR 1353 EU;MESNICASLADIĆ, vl. Zoran i Niko Sladić;Mihaljevići b.b., Bilice;Šibenik;22000;43.7340647;15.8944767
HR 1354 EU;MESNICA BOŠNJAK, vl. Petar Bošnjak;Put Gospe Stomorije 30;Kaštel Novi;21217;43.5625776;16.3286035
HR 1359 EU;BEL CRO TRADE d.o.o.;Brištani, Bačići 1;Drinovci;22324;43.8536354;16.0147941
HR 136 EU;MM MESNA INDUSTRIJA d.o.o.;Gornje Prekrižje 4;Krašić;10454;45.6540864;15.5174579
HR 1367 EU;PISINIUM d.o.o.;Žbrlini 103;Pazin;52000;45.2391995;13.9363313
HR 1370 EU;V.I.R.I.B.U.S. d.o.o.;Gračanski ribnjak b.b.;Zagreb;10000;45.8130967;15.9772795
HR 1372 EU;MESNICE i KLAONICA LUKIN d.o.o.;Babindub 1/a;Zadar;23000;44.0979273;15.3102454
HR 1375 EU;VIVITA d.o.o.;4. Gardijske brigade 53E;Split;21000;43.5584443;16.3421260
HR 138 EU;TRGOLORENC d.o.o.;Šumber 12;Nedešćina;52231;45.1407581;14.1120035
HR 1385 EU;HIPP CROATIA d.o.o.;Kralja Zvonimira 1;Glina;44400;45.3428791;16.0986020
HR 139 EU;PODRAVKA d.d.;Đelekovečka cesta 21;Koprivnica;48000;46.1857827;16.8441968
HR 1390 EU;RANKO DOMINIĆ - KLAONICA PERADI;Braće Radić 43;Mala Subotica;40321;46.3438366;16.5394560
HR 1392 EU;METRO CASH & CARRY d.o.o. - VPC Jankomir;Jankomir 31;Zagreb;10000;45.8003261;15.8813481
HR 1393 EU;MESNICA ŠTURLIĆ, obrt za proizvodnju i trgovinu, vl. Kristinko Šturlić;Marije Snježne 92;Zagreb;10000;45.8130967;15.9772795
HR 1394 EU;IGO-MAT d.o.o.;Otruševec 15a;Bregana;10432;45.8382973;15.6881481
HR 1398 EU;ŠTEVANJA mesarski obrt, vl. Grozdana Stevanja;Gorica-Glavica, Dr. Franje Tuđmana 13;Sukošan;23206;44.0463805;15.3145054
HR 1405 EU;PROBIOTIK d.o.o.;Ulica grada Gospića 3;Zagreb;10000;45.8011321;16.0321512
HR 1410 EU;VINDIJA d.o.o.;Industrijska zona Jug 11;Osijek;31000;45.5419151;18.6586061
HR 1419 EU;DUKAT d.d., DC Stobreč;4. Gardijske brigade 53;Split;21000;43.5584443;16.3421260
HR 1430 EU;LOVIŠTE SPAČVA - šumarija Vrbanja;Spačva -Lovište SPAČVA;Vrbanja;32254;44.9821315;18.9279039
HR 1433 EU;ŠKOKIĆ d.o.o.;Put Strinje 68;Kaštel Sućurac;21212;43.5557730;16.4110937
HR 1444 EU;MLJEKAR LOGISTIKA d.o.o.;Lemeš 6;Veliki Raven;48265;45.9888204;16.4757850
HR 1445 EU;DOM ZA ODRASLE OSOBE LOBOR-GRAD;Markušbrijeg 131;Lobor;49253;46.1201932;16.0665368
HR 1446 EU;HRVATSKE ŠUME d.o.o. - lovište Radinje XII/16;Nikole Ljubičića 100, Magić Mala;Nova Kapela;35410;45.1957046;17.6433082
HR 1447 EU;AQUA FARMA d.o.o.;Uvala Teplo, Raški zaljev;Raša;52223;45.0805940;14.0838455
HR 145 EU;DUKAT d.d.;Velike Sredice 11;Bjelovar;43000;45.8908053;16.8266965
HR 146 EU;KIM MLJEKARA KARLOVAC d.o.o.;Mekušanska cesta 51;Karlovac;47000;45.4838438;15.5742041
HR 1465 EU;MARKO - obrt za dimljenje ribe, vl. Branka Petrunić - Becker;Josipa bana Jelačića 25;Duga Resa;47250;45.4514933;15.4960625
HR 1477 EU;Prerada mesa i mesnica KRAMARIĆ, vl. Stjepan Kramarić;Polonje 112;Sveti Ivan Zelina;10380;45.9597901;16.2430942
HR 1484 EU;ORADA ADRIATIC d.o.o.;Rujevica 6;Rijeka;51000;45.3461571;14.4084791
HR 1486 EU;BRAĆA TOMASOVIĆ, obrt za trgovinu, vl. Nikola Tomasović;Put Gospe Lurdske 55;Kučiće;21208;43.4310778;16.8109601
HR 1490 EU;BLAŽ, obrt za trgovinu mesom, vlasnik Željko Blažević;Škrljevo 6;Rijeka;51000;45.3267976;14.4422080
HR 1495 EU;DUKAT d.d., DC Zadar;Gaženička cesta 8;Zadar;23000;44.1012493;15.2557953
HR 1504 EU;NUJIĆ MARKO d.o.o. - pakirni centar za jaja;Ribnica 201;Novo Čiče;10415;45.7048175;16.1184629
HR 1505 EU;MALTARIĆ, vl. Zdravko Maltarić;Željka Selingera b.b.;Koprivnica;48000;46.1672461;16.8102183
HR 1506 EU;PROFESIONALNI RIBAR - ROMANO PRELEVIĆ, vl. Romano Prelević;Šibenski zaljev -akvat. rijeke Krke;Šibenik;22000;43.7340647;15.8944767
HR 1508 EU;AGRO RIBARSKA ZADRUGA BRANITELJA;Pirovački zaljev - Prosika b.b.;Pirovac;22213;43.8169387;15.6678671
HR 1510 EU;R.A.K. Obrt za ribolov i podvodne djelatnosti;Medulinski zaljev;Pula;52100;44.8702281;13.8455311
HR 1514 EU;MASEN d.o.o.;Burići 3;Kanfanar;52352;45.1228399;13.8384985
HR 1515 EU;Obrt Medena;Bečka 8;Virovitica;33000;45.8358832;17.3943642
HR 1516 EU;NATURA BEEF d.o.o.;Debelo Brdo 9, Gospić;Gospić;53000;44.5464046;15.3754210
HR 152 EU;PZ Pčelarstvo Apitrade;Hreljin 136;Hreljin;51226;45.2840364;14.5989301
HR 1521 EU;MIJUKIĆ - PROM, vl. Jure Lešina;Runovići 242;Runović;21261;43.3893681;17.2361262
HR 1526 EU;BERMES d.o.o.;Zagorska 14;Donja Pušća;10294;45.9154367;15.7743807
HR 1531 EU;DAGNJA obrt za morski ribolov, marikulturu i trgovinu, vl. Mirjana Pejić;Raški zaljev - ispod Ulika;Labin;52220;45.0913954;14.1236014
HR 1534 EU;MM Obrt za proizvodnju, preradu i trgovinu;Črnkovečka 61;Zagreb;10000;45.7717478;16.0389878
HR 1537 EU;KATIĆ, obrt za ribarstvo, trgovinu i usluge, vl. Ivica Katić;Šibenski zaljev - Ušće rijeke Krke;Šibenik;22000;43.7340647;15.8944767
HR 154 EU;CONGER d.o.o.;Put Benediktanaca 1/1;Komiža;21485;43.0413407;16.1141622
HR 1544 EU;Otpremni centar SARGUS;Savudrijska vala;Savudrija;52475;45.5007791;13.5044472
HR 1551 EU;MI CEROVSKI d.o.o.;Pod Goljakom 21, G. Dragonožec;Donji Dragonožec;10253;45.6610681;15.9471656
HR 1556 EU;HEP PROIZVODNJA d.o.o. - Ribogojilište Vitunj;Vitunj 80;Ogulin;47300;45.2634099;15.2351850
HR 156 EU;VAL MAIOR d.o.o.;Biškupije 99 A;Medulin;52203;44.8243334;13.9280650
HR 1563 EU;KOZJAK DVA d.o.o.;Tikvarin 8;Kaštel Kambelovac;21214;43.5490565;16.3834154
HR 1565 EU;PERADARSTVO BEŠTAK, vl. Vlado Beštak;Beštaki 25, Adamovec;Sesvete;10360;45.9023794;16.1550473
HR 1567 EU;HRVATSKE ŠUME d.o.o., Uprava šuma Osijek, Šumarija Tikveš;Tikveš b.b., Tikveš;Bilje;31327;45.6039828;18.7437649
HR 1568 EU;BASTALEC MESNICE j.d.o.o.;Blaškovečka 28, Blaškovec;Donja Zelina;10382;45.9113619;16.2323638
HR 157 EU;POLJOMES d.o.o.;Šodići 2a;Kostrena;51221;45.3087515;14.4921708
HR 1575 EU;OBRT PLEŠA, vl. Dražen Pleša;Homerova 1;Orahovica;33515;45.5327586;17.8779749
HR 1576 EU;EKO DRUŽBA d.o.o.;Put Vrbovnika b.b.;Split;21000;43.5116383;16.4399659
HR 1576-1 EU;KUSIĆ TRGOVINA d.o.o.;Put Vrbovnika b.b.;Split;21000;43.5116383;16.4399659
HR 1582 EU;SRDELA d.o.o.;Serv. - gosp. zona Žedno-Drage b.b.;Supetar;21400;43.3825826;16.5532114
HR 1586 EU;TRGOVAČKO PROIZVODNI OBRT MESNICA NAVRAČIĆ, VL. MARIO NAVRAČIĆ;Pinturska 6, Hrašće Turopoljsko;Zagreb;10000;45.7271335;16.0096607
HR 159 EU;DUKAT d.d.;Marijana Čavića 9;Zagreb;10000;45.7988246;16.0319868
HR 1591 EU;MELIOKOMERC d.o.o.;Joakima Rakovca 10;Umag;52470;45.4308674;13.5259035
HR 1592 EU;METRO CASH & CARRY d.o.o. - VPC Sesvete;Slavonska avenija 71;Sesvete;10360;45.8051924;16.1146478
HR 1595 EU;MEGGLE HRVATSKA d.o.o.;Ventilatorska 12, Lučko;Lučko;10250;45.7559418;15.8899435
HR 1607 EU;PRŠUTANE JASENICE d.o.o.;Jasenice b.b.;Jasenice;23243;44.2291095;15.5765784
HR 1608 EU;DANIČIĆ PROMET d.o.o.;Ćira Carića 1;Dubrovnik;20000;42.6600186;18.0775933
HR 1612 EU;BRODOKOMERC NOVA d.o.o. - DC A. K. Miošića;A.K.Miošića b.b.;Rijeka;51000;45.3267976;14.4422080
HR 1620 EU;MESNICA - OBRT, vl. Drago Vugrinec;Sutlanska Dolina 87, Prosinec;Dubravica;10293;45.9547766;15.7318401
HR 1625 EU;REGATA, obrt za trgovinu, proizvodnju i usluge, vl. Mladen Glušević;Hrvatske mornarice 10;Split;21000;43.5172399;16.4453273
HR 1629 EU;ŠKOLJKARSTVO MUŠULA, vl. Cvijetko Matković;Malost. zaljev - Bistrina b.b.;Topolo;20205;42.9091083;17.7047793
HR 163 EU;ZG HOLDING d.o.o., Podružnica Tržnice Zagreb;Slavonska avenija 7;Zagreb;10000;45.8027992;16.0509276
=======
HR 2 EU;BELJE plus d.o.o.;Bele Bartoka 33;Beli Manastir;31300;45.7674062;18.5879895
HR 3 EU;MI BRAĆA PIVAC d.o.o.;Selce 33;Karlovac;47000;45.5085430;15.5518388
HR 4 EU;CROMA - VARAŽDIN d.o.o.;V. Cecelje 6;Sveti Ilija;42214;46.2463479;16.3233118
HR 5 EU;VINDIJA d.o.o.;Međimurska 6;Varaždin;42000;46.3112912;16.3464613
HR 6 EU;MARDEŠIĆ d.o.o.;Sali II 1;Sali;23281;43.9370246;15.1653093
HR 8 EU;Mesna industrija VAJDA d.d.;Zagrebačka 4;Čakovec;40000;46.3833025;16.4245969
HR 10 EU;PIK VRBOVEC plus d.o.o.;Zagrebačka 148;Vrbovec;10340;45.8845609;16.4049309
HR 11 EU;LEDO plus d.o.o.;M. Čavića 7;Zagreb;10000;45.8130967;15.9772795
HR 18 EU;SILMA d.o.o.;Petkovec Toplički 42C;Varaždinske Toplice;42223;46.1937274;16.3946491
HR 20 EU;OPG Šurlan Igor;Brezje 98;Lopatinec;40311;46.4206789;16.3961275
HR 21 EU;KLAONICA 32 d.o.o.;Nikole Kramarića 32;Velika Mlaka;10408;45.7308411;16.0280369
HR 24 EU;INTERCOMMERCE Export-Import d.o.o.;Ulica Ernesta Miloša 20;Umag;52470;45.4349410;13.5253626
HR 25 EU;KLAONICA br. 25 SITNE I KRUPNE STOKE, vl. Drago Dropučić;Črečan 10;sveti Ivan Zelina;10380;45.9753340;16.2628584
HR 29 EU;Mesarsko - kobasičarski obrt i ugostiteljstvo ZVONKO ŠANJEK i SINOVI, vl. Ronald Šanjek;Optujska 83;Varaždin;42000;46.3128024;16.3301488
HR 39 EU;PERADARSTVO BEŠTAK, vl. Biserka Beštak;Lazarini 12;Donja Zelina;10382;45.9113619;16.2323638
HR 41 EU;PERADARSTVO  uzgoj, klanje i prodaja peradi BLAGUS;Donji Pustakovec 76;Prelog;40323;46.3366064;16.6147940
HR 42 EU;IVAN GOSARIĆ - klaonica peradi;Čakovečka 25;Donji Kraljevec;40320;46.3707411;16.6477773
HR 47 EU;SINJE MORE d.o.o.;Jurjevgradska 61;Tribunj;22212;43.7551347;15.7472165
HR 54 EU;UZGOJ, KLANJE I PRODAJA PERADI, vl. Božica Kolenković;Findri 6, Blaškovec;Donja Zelina;10382;45.9113619;16.2323638
HR 56 EU;BELJE plus d.o.o.;Zeleno polje 34;Osijek;31000;45.5568112;18.7328881
HR 57 EU;AGROZELINA LOGISTIKA d.o.o.;Dedovići 3;Zagreb;10000;45.7638837;16.0028975
HR 61 EU;KOKA d.o.o.;Biskupečka ulica 58;Varaždin;42000;46.2923335;16.3367497
HR 62 EU;ADRIA OCTOPUS d.o.o.;Plitvička 6;Biograd na moru;23210;43.9448295;15.4602903
HR 65 EU;PSUNJ, tvornica kože d.o.o.;Kožarska 18;Rešetari;35403;45.2563378;17.4296428
HR 69 EU;MESO-PRERADA MESA KIŠ, vl. Franjo Kiš;Kolodvorska 16;Donji Kraljevec;40320;46.3658625;16.6499485
HR 70 EU;KALINSKI TRGOVINA, KLAONICA, PRERADA MESA I UGOSTITELJSTVO, vlasnica Višnja Kalinski;Gradečki Pavlovec 164;Gradec;10345;45.9021998;16.4723164
HR 72 EU;RUŽIĆ GOSPODARSTVO d.o.o.;Hodošan, Uska 4;Donji Kraljevec;40320;46.3672744;16.6495517
HR 74 EU;VALIPILE d.o.o.;Gljuščići 212c;Sveti Petar u šumi;52404;45.1816824;13.8641100
HR 75 EU;JANČEC d.o.o.;Donji Pustakovec 112;Prelog;40323;46.3366064;16.6147940
HR 77 EU;HORIZONT d.o.o.;Franjevačka 7;Koprivnica;48000;46.1592564;16.8318995
HR 79 EU;ZDENKA - mliječni proizvodi d.o.o.;Trg kralja Tomislava 15;Veliki Zdenci;43293;45.6744269;17.1081283
HR 92 EU;MD GROUP j.d.o.o.;Delta 2;Rijeka;51000;45.3245899;14.4477520
HR 97 EU;PERADARSTVO BANEKOVIĆ uzgoj, klaonica i prerada, vl. Željko Baneković;Vrh Visočki 21;Visoko;42224;46.0902780;16.3250000
HR 107 EU;CENTAURUS d.o.o.;VIII. Mediteranskih igara 9/1;Split;21000;43.5167714;16.4269279
HR 115 EU;JOSIP HERMAN;Donji Pustakovec 113;Prelog;40323;46.3366064;16.6147940
HR 120 EU;VIR 1898 MESNA INDUSTRIJA d.o.o.;Školjić 16;Rijeka;51000;45.3286951;14.4460743
HR 127 EU;SABLIĆ - DUBRAVA d.o.o.;Trg Slobode 10;Dubrava;10342;45.8376353;16.5369237
HR 135 EU;Domaći pilići ANTOLKOVIĆ, vl. Zlatko Antolković;Dragutina Domjanića 16;Adamovec;10363;45.8989988;16.1655039
HR 136 EU;MM MESNA INDUSTRIJA d.o.o.;Gornje Prekrižje 4;Krašić;10454;45.6540864;15.5174579
HR 138 EU;TRGOLORENC d.o.o.;Šumber 12;Nedešćina;52231;45.1407581;14.1120035
HR 139 EU;PODRAVKA d.d.;Đelekovečka cesta 21;Koprivnica;48000;46.1857827;16.8441968
HR 145 EU;DUKAT d.d.;Velike Sredice 11;Bjelovar;43000;45.8908053;16.8266965
HR 146 EU;KIM MLJEKARA KARLOVAC d.o.o.;Mekušanska cesta 51;Karlovac;47000;45.4838438;15.5742041
HR 152 EU;PZ Pčelarstvo Apitrade;Hreljin 136;Hreljin;51226;45.2840364;14.5989301
HR 154 EU;CONGER d.o.o.;Put Benediktanaca 1/1;Komiža;21485;43.0413407;16.1141622
HR 156 EU;VAL MAIOR d.o.o.;Biškupije 99 A;Medulin;52203;44.8243334;13.9280650
HR 157 EU;POLJOMES d.o.o.;Šodići 2a;Kostrena;51221;45.3087515;14.4921708
HR 159 EU;DUKAT d.d.;Marijana Čavića 9;Zagreb;10000;45.7988246;16.0319868
HR 163 EU;ZG HOLDING d.o.o., Podružnica Tržnice Zagreb;Slavonska avenija 7;Zagreb;10000;45.8027992;16.0509276
HR 163-2 EU;FISH TRADE d.o.o.;Slavonska avenija 7;Zagreb;10000;45.8027992;16.0509276
HR 163-4 EU;ORADA ADRIATIC d.o.o.;Slavonska avenija 7;Zagreb;10000;45.8027992;16.0509276
HR 163-5 EU;KRALJICA MORA j.d.o.o.;Slavonska avenija 7;Zagreb;10000;45.8027992;16.0509276
HR 163-6 EU;POSEJDON, obrt za trgovinu i ribarstvo, vl. Danijel Pavlović;Slavonska avenija 7;Zagreb;10000;45.8027992;16.0509276
HR 163-7 EU;FIORITAL d.o.o.;Slavonska avenija 7;Zagreb;10000;45.8027992;16.0509276
HR 163-8 EU;CELINA - ribarsko trgovački obrt, vl. Oleg Jurašin;Slavonska avenija 7;Zagreb;10000;45.8027992;16.0509276
HR 163-9 EU;LuMa ribarstvo d.o.o.;Slavonska avenija 7;Zagreb;10000;45.8027992;16.0509276
>>>>>>> main
HR 163-10 EU;MBT SVET d.o.o. -Podružnica Zagreb;Slavonska avenija 7;Zagreb;10000;45.8027992;16.0509276
HR 163-11 EU;DAN - MAAR COMMERCE j.d.o.o.;Slavonska avenija 7;Zagreb;10000;45.8027992;16.0509276
HR 163-12 EU;Delamaris Zagreb d.o.o.;Slavonska avenija 7;Zagreb;10000;45.8027992;16.0509276
HR 163-13 EU;FOUR BEES d.o.o.;Slavonska avenija 7;Zagreb;10000;45.8027992;16.0509276
HR 163-15 EU;EURO DELIKATESE d.o.o.;Slavonska avenija 7;Zagreb;10000;45.8027992;16.0509276
HR 163-16 EU;FIDEL I REX, obrt za trgovinu, vl. Tomislav Vancaš;Slavonska avenija 7;Zagreb;10000;45.8027992;16.0509276
HR 163-19 EU;CROMARIS d.d.;Slavonska avenija 7;Zagreb;10000;45.8027992;16.0509276
<<<<<<< HEAD
HR 163-2 EU;FISH TRADE d.o.o.;Slavonska avenija 7;Zagreb;10000;45.8027992;16.0509276
=======
>>>>>>> main
HR 163-20 EU;MEDUZA d.o.o.;Slavonska avenija 7;Zagreb;10000;45.8027992;16.0509276
HR 163-21 EU;CHERSO d.o.o.;Slavonska avenija 7;Zagreb;10000;45.8027992;16.0509276
HR 163-22 EU;RIGETA d.o.o.;Slavonska avenija 7;Zagreb;10000;45.8027992;16.0509276
HR 163-23 EU;INTER ALFA d.o.o.;Slavonska avenija 7;Zagreb;10000;45.8027992;16.0509276
HR 163-24 EU;KOKA d.o.o.;Slavonska avenija 7;Zagreb;10000;45.8027992;16.0509276
HR 163-25 EU;MONTANA PLUS d.o.o.;Slavonska avenija 7;Zagreb;10000;45.8027992;16.0509276
HR 163-26 EU;VELINCI d.o.o.;Slavonska avenija 7;Zagreb;10000;45.8027992;16.0509276
HR 163-27 EU;LABRAKO d.o.o.;Slavonska avenija 7;Zagreb;10000;45.8027992;16.0509276
HR 163-28 EU;CVITA FOOD d.o.o.;Slavonska avenija 7;Zagreb;10000;45.8027992;16.0509276
HR 163-29 EU;SALE NERO d.o.o.;Slavonska avenija 7;Zagreb;10000;45.8027992;16.0509276
HR 163-30 EU;EURO-MILK d.o.o.;Slavonska avenija 7;Zagreb;10000;45.8027992;16.0509276
HR 163-31 EU;PUREX d.o.o.;Slavonska avenija 7;Zagreb;10000;45.8027992;16.0509276
HR 163-32 EU;PALEKA, mesarsko - trgovački obrt, vl. Mladen Paleka;Slavonska avenija 7;Zagreb;10000;45.8027992;16.0509276
HR 163-34 EU;SALVIA d.o.o.;Slavonska avenija 7;Zagreb;10000;45.8027992;16.0509276
HR 163-35 EU;C.A.K. d.o.o.;Slavonska avenija 7;Zagreb;10000;45.8027992;16.0509276
HR 163-37 EU;COOPADRIA d.o.o.;Slavonska avenija 7;Zagreb;10000;45.8027992;16.0509276
HR 163-38 EU;PAN ASIA d.o.o.;Slavonska avenija 7;Zagreb;10000;45.8027992;16.0509276
HR 163-39 EU;SUPER LIGA d.o.o.;Slavonska avenija 7;Zagreb;10000;45.8027992;16.0509276
<<<<<<< HEAD
HR 163-4 EU;ORADA ADRIATIC d.o.o.;Slavonska avenija 7;Zagreb;10000;45.8027992;16.0509276
=======
>>>>>>> main
HR 163-40 EU;PROIZVODNJA ZDRAVE HRANE d.o.o.;Slavonska avenija 7;Zagreb;10000;45.8027992;16.0509276
HR 163-41 EU;GLOBAL EURO-TRADE d.o.o.;Slavonska avenija 7;Zagreb;10000;45.8027992;16.0509276
HR 163-42 EU;KRAŠ d.d.;Slavonska avenija 7;Zagreb;10000;45.8027992;16.0509276
HR 163-43 EU;MOJA HRANA d.o.o.;Slavonska avenija 7;Zagreb;10000;45.8027992;16.0509276
HR 163-44 EU;PROMES CVANCIGER d.o.o.;Slavonska avenija 7;Zagreb;10000;45.8027992;16.0509276
HR 163-45 EU;KUĆA LEMURIJA d.o.o.;Slavonska avenija 7;Zagreb;10000;45.8027992;16.0509276
HR 163-46 EU;P. T. P. - EFEKT d.o.o.;Slavonska avenija 7;Zagreb;10000;45.8027992;16.0509276
HR 163-48 EU;BARI UNO d.o.o.;Slavonska avenija 7;Zagreb;10000;45.8027992;16.0509276
HR 163-49 EU;JADRAN DELIKATESE d.o.o.;Slavonska avenija 7;Zagreb;10000;45.8027992;16.0509276
<<<<<<< HEAD
HR 163-5 EU;KRALJICA MORA j.d.o.o.;Slavonska avenija 7;Zagreb;10000;45.8027992;16.0509276
HR 163-50 EU;TROPIC FISH d.o.o.;Slavonska avenija 7;Zagreb;10000;45.8027992;16.0509276
HR 163-6 EU;POSEJDON, obrt za trgovinu i ribarstvo, vl. Danijel Pavlović;Slavonska avenija 7;Zagreb;10000;45.8027992;16.0509276
HR 163-7 EU;FIORITAL d.o.o.;Slavonska avenija 7;Zagreb;10000;45.8027992;16.0509276
HR 163-8 EU;CELINA - ribarsko trgovački obrt, vl. Oleg Jurašin;Slavonska avenija 7;Zagreb;10000;45.8027992;16.0509276
HR 163-9 EU;LuMa ribarstvo d.o.o.;Slavonska avenija 7;Zagreb;10000;45.8027992;16.0509276
HR 167 EU;Poljoprivredna zadruga POLIČANKA;Poličnik 5;Poličnik;23241;44.1743038;15.3784633
HR 168 EU;Mesarski obrt SANDRO FRANK, vl. Sandro Frank;Čikovići 111;Kastav;51215;45.3653914;14.3499254
HR 1683 EU;REŠKOVAC d.o.o.;Trg I. Kukuljevića 6;Zagreb;10000;45.8130967;15.9772795
HR 169 EU;MI BRAĆA PIVAC d.o.o.;Težačka 13, Vrgorac;Vrgorac;21276;43.2068342;17.3872637
=======
HR 163-50 EU;TROPIC FISH d.o.o.;Slavonska avenija 7;Zagreb;10000;45.8027992;16.0509276
HR 167 EU;Poljoprivredna zadruga POLIČANKA;Poličnik 5;Poličnik;23241;44.1743038;15.3784633
HR 168 EU;Mesarski obrt SANDRO FRANK, vl. Sandro Frank;Čikovići 111;Kastav;51215;45.3653914;14.3499254
HR 169 EU;MI BRAĆA PIVAC d.o.o.;Težačka 13, Vrgorac;Vrgorac;21276;43.2068342;17.3872637
HR 173 EU;AIPK - TRGOVINA d.o.o.;Samoborska 134;Zagreb;10000;45.8131554;15.8751553
HR 173-1 EU;CELJSKE MESNINE Z'DEŽELE d.o.o.;Samoborska 134;Zagreb;10000;45.8131554;15.8751553
HR 173-2 EU;NIGIRI ZAGREB j.d.o.o.;Samoborska 134;Zagreb;10000;45.8131554;15.8751553
HR 173-3 EU;CROFISH, obrt za trgovinu i prijevoz, vl. Denis Varović;Samoborska 134;Zagreb;10000;45.8131554;15.8751553
HR 173-5 EU;KLAROM DELICIJE d.o.o.;Samoborska 134;Zagreb;10000;45.8131554;15.8751553
HR 173-7 EU;MARI-TRGOVINA d.o.o.;Samoborska 134;Zagreb;10000;45.8131554;15.8751553
HR 173-10 EU;ADRIA FISH d.o.o.;Samoborska 134;Zagreb;10000;45.8131554;15.8751553
HR 173-12 EU;EKO NOMAD d.o.o.;Samoborska 134;Zagreb;10000;45.8131554;15.8751553
HR 173-14 EU;ADRIATIC FOOD d.o.o.;Samoborska 134;Zagreb;10000;45.8131554;15.8751553
HR 173-15 EU;DAR-MAR FOOD d.o.o.;Samoborska 134;Zagreb;10000;45.8131554;15.8751553
HR 173-16 EU;BIALU d.o.o.;Samoborska 134;Zagreb;10000;45.8131554;15.8751553
HR 173-17 EU;STELLAR FOODS d.o.o.;Samoborska 134;Zagreb;10000;45.8131554;15.8751553
HR 173-19 EU;FIL-AVSO Air Tech d.o.o.;Samoborska 134;Zagreb;10000;45.8131554;15.8751553
HR 173-20 EU;MELI TEHNOLOGIJA d.o.o.;Samoborska 134;Zagreb;10000;45.8131554;15.8751553
HR 175 EU;RADOVAN PETROVIĆ d.o.o.;Tina Ujevića 7;Velika Gorica;10410;45.7170032;16.0794353
HR 177 EU;PAMIN d.o.o.;Industrijska zona  Kukuljanovo, Radna zona R-29;Kukuljanovo;51227;45.3264757;14.5227691
HR 185 EU;ASCOMMERCE d.o.o.;Slobodna zona, Istično predgrađe b.b.;Osijek;31000;45.5548793;18.6953685
HR 187 EU;MIRNA d.d.;G. Paliaga 8;Rovinj;52210;45.0807411;13.6417282
HR 190 EU;MESNICA KANURIĆ, proizvodno trgovački obrt, vl. Sanel Kanurić;Prespanska 48;Zagreb;10000;45.8078518;15.9192133
HR 192 EU;METRO CASH & CARRY d.o.o. - VPC Osijek;Kneza Trpimira 28;Osijek;31000;45.5433860;18.6881133
HR 193 EU;MESNICA NOVOTNY;Toplička 111, Kneginec Gornji;Turčin;42204;46.2586581;16.3595298
HR 195 EU;DERMA d.d.;Podravska ulica 13;Varaždin;42000;46.3080994;16.3600154
HR 199 EU;OLETIĆ d.o.o.;Stanetinec 37A;Štrigova;40312;46.4370160;16.2687508
HR 204 EU;Poljoprivredno gospodarstvo JANČEC, vl. Danijela Jančec-Kramar;Donji Pustakovec 53;Prelog;40323;46.3366064;16.6147940
HR 222 EU;ŽGANJER, vl. Lidija Žganjer Gržetić;Jaškovo 51;Ozalj;47280;45.5651746;15.4784166
HR 228 EU;VINDON d.o.o.;Lučka ulica 4;Slavonski Brod;35000;45.1494358;18.0458049
HR 229 EU;MILINA - obrt za proizvodnju i preradu mesa i trgovinu, vl. Željan Milina;Smokvica 60/a, otok Korčula;Smokvica;20272;42.9282998;16.8938571
HR 237 EU;EKSTRAMES obrt za trgovinu i proizvodnju, vl. Goran Bukvić;Mirka Bogovića 49;Samobor;10430;45.8220766;15.6995145
HR 245 EU;MANJATIVA d.o.o.;Ruđera Boškovića 25;Split;21000;43.5095439;16.4673295
HR 247 EU;KLAROM DELICIJE d.o.o.;Samoborska 178;Zagreb;10000;45.8117598;15.8953213
HR 251 EU;Inout d.o.o.;Osječka 47;Opatija;51410;45.3349238;14.3067834
HR 251-1 EU;HIA PROMET d.o.o.;Osječka 47;Opatija;51410;45.3349238;14.3067834
HR 258 EU;Mesarski obrt COLNAR, vl. Ivo Colnar;Podkilavačka 14, Dražice;Dražice;51218;45.3889312;14.4659426
HR 263 EU;BEBRINKA d.o.o.;Donja Bebrina b.b.;Ruščica;35208;45.1470953;18.0797115
HR 270 EU;STUDENAC d.o.o.;Bana Jelačića 17;Dugopolje;21204;43.5894808;16.5813366
HR 285 EU;Obrt KUDE, vl. Ante Galić;Put Steljka 1;Trilj;21240;43.6159898;16.7242534
HR 286 EU;IVAN BOŽIĆ d.o.o.;Prisoje 2;Dicmo;21232;43.6351478;16.5957094
HR 287 EU;RALU LOGISTIKA d.d.;Vranjički put 8;Vranjic;21211;43.5292055;16.4796668
HR 290 EU;CROMARIS d.d.;Gaženica 4/b;Zadar;23000;44.0942176;15.2668245
HR 291 EU;HLAD usluge d.o.o.;Industrijska zona Bjeliš, Ferde Filipović 59f;Slavonski Brod;35000;45.1665803;18.0121385
HR 292 EU;MI BRAĆA PIVAC d.o.o.;Gavanova b.b.;Šibenik;22000;43.7340647;15.8944767
HR 293 EU;LUCIJA Obrt za uzgoj peradi i ugostiteljstvo;Valtursko polje 191/a, Valtura;Pula;52100;44.8702281;13.8455311
HR 298 EU;Mesarsko-kobasičarski obrt, vlasnik Zdravko Horvatić;Vida Ročića 129;Zagreb;10000;45.8766524;16.0158792
HR 299 EU;PODRAVKA d.d.;Danica 12;Koprivnica;48000;46.1889634;16.8396435
HR 303 EU;ŠIKIĆ j.d.o.o.;Butina 6, Betina;Murter;22243;43.8202010;15.5902905
HR 318 EU;A & B d.o.o.;Centener 26;Rovinj;52210;45.0725197;13.6466996
HR 319 EU;AGROLAGUNA d.d.;Stancija Špin 4;Tar;52465;45.3161491;13.6300669
HR 326 EU;HRVATSKE ŠUME d.d. Šumarija Đakovo;Lovište Mačkovac;Đakovo;31400;45.3080745;18.4116376
HR 328 EU;PAŠKA SIRANA d.d.;Splitska b.b.;Pag;23250;44.4437608;15.0545217
HR 343 EU;OPG DARIO ŠIMONOVIĆ;Jadruhi 11;Vižinada;52447;45.3006662;13.7501795
HR 350 EU;GALA d.o.o.;Marka Marulića 14;Bjelovar;43000;45.8823361;16.8198811
HR 354 EU;ROTO DINAMIC d.o.o.;Kamen, 4. Gardijske 43b;Split;21000;43.5116383;16.4399659
HR 355 EU;ALDEN d.o.o.;Baderna 8;Baderna;52445;45.2125456;13.7523610
HR 357 EU;ZLATKO ORSAG, pakirni centar za jaja;Prvomajska 34, Vularija;Orehovica;40322;46.3321970;16.5063245
HR 358 EU;EDUARD DUNIŠ;Grožnjan, Šterna 2;Oprtalj;52428;45.3815102;13.8243521
HR 370 EU;LUDBREŠKA MLJEKARA ANTUN BOHNEC d.o.o.;Koprivnička 17b;Ludbreg;42230;46.2440701;16.6252837
HR 372 EU;KOLARIŠTE farma nesilica, obrt za uzgoj peraadi, vl. Ante Petrović;Pleadini 16a;Pakovo Selo;22320;43.8167546;16.0925292
HR 376 EU;PRŠUTI MILOHANIĆ;Milohanići 15E;Tinjan;52444;45.2177273;13.8407452
HR 378 EU;Obrt za uzgoj školjkaša i trgovinu MARCANELA, vl. Mirko Dassena;Istarske kontrade 34, Vabriga;Tar;52465;45.2909181;13.6147199
HR 381 EU;PIVCI, obrt za proizvodnju, vl. Ana Majić;Potravlje 33;Hrvace;21233;43.7838841;16.5586398
HR 386 EU;JAJE - peradarska farma, obrt za proizvodnju jaja, vl. Mirko Majić;Zavojane 22/C;Vrgorac;21276;43.1997457;17.3825793
HR 387 EU;OPG SLAVICA DŽINIĆ;V. Nazora 95;Stari Mikanovci;32284;45.2702600;18.5486923
HR 391 EU;Marko Medved;Pribislavec, I. G. Kovačića 9;Čakovec;40000;46.3892305;16.4368593
HR 393 EU;BILOGORSKA JAJA d.o.o.;Trojstvena 77;Bjelovar;43000;45.9168078;16.8753155
HR 394 EU;KATARINA FÜRNKRANZ;Ilije Gregurića 14;Brdovec;10291;45.8732260;15.7520385
HR 395 EU;VINDIJA d.o.o.;Gospodarska 27;Varaždin;42000;46.2896318;16.3369960
HR 396 EU;JERUZALEM - RIJEKA d.o.o.;Brajdica b.b.;Rijeka;51000;45.3267976;14.4422080
HR 397 EU;DRNIŠKA TRADICIJA d.o.o.;Blažević vrba br. 9;Čavoglave;22322;43.7829858;16.3369442
HR 399 EU;GAVRILOVIĆ d.o.o.;Gavrilovićev trg 1;Petrinja;44250;45.4417485;16.2917439
HR 401 EU;BEPO-BAŠIĆ j.d.o.o.;Put Jersan 13A, otok Murter;Murter;22243;43.8202010;15.5902905
HR 402 EU;MEDICOMMERCE d.o.o.;Gedići b.b.;Poreč;52440;45.2271961;13.5957333
HR 407 EU;MESNICA LUKA obrt za uslužne djelatnosti, vl. Milan Nekić;Lopci b.b., Senjska Draga;Senj;53270;44.9901533;14.9021159
HR 410 EU;Mesnica GOTIĆ, vl. Martina Gotić Korotaj;Hraščica, P. Zrinskog 25;Varaždin;42000;46.3079645;16.3378198
HR 416 EU;OPG LUKA LASIĆ;Budžak 3;Satnica-Petrijevci;31208;45.6143824;18.4894923
HR 424 EU;HRVATSKE ŠUME d.o.o. - Karlovac;Karlovačka 6;Vojnić;47220;45.3282810;15.6927598
HR 444 EU;MI BRAĆA PIVAC d.o.o.;Zavojane 103;Dragljane;21275;43.2429379;17.2403223
HR 445 EU;NADA NOVAKOVIĆ;Dragutina Domjanića 153;Đakovo;31400;45.3112755;18.4322979
HR 453 EU;ŽUVELA d.o.o.;Ulica uvala Vira 5;Hvar;21450;43.1797775;16.4401526
HR 462 EU;NIRA d.o.o.;Pakovo selo, Put Čikole 1;Drniš;22320;43.8602746;16.1557855
HR 465 EU;PRŠUTARNA I STANCIJA BURŠIĆ, vl. Mikela Buršić Lisjak;Fažanska cesta 25;Vodnjan;52215;44.9603387;13.8497802
HR 475 EU;SIMENTAL COMMERCE d.o.o.;Srijemska 46;Osijek;31000;45.5525359;18.7121320
HR 481 EU;PERADARSTVO GAJIĆ - pakirni centar za jaja;sveti Marka 5;Trnjani;35211;45.1909460;18.1340880
HR 485 EU;POLJOPRIVREDNA ZADRUGA CRES;Šetalište XX travnja br. 62, Cres;Cres;51557;44.9603460;14.4079371
HR 492 EU;ORBITA d.o.o.;Dr. F. Tuđmana 8;Zadar;23000;44.1168594;15.2353257
HR 493 EU;OPG IVONA BARIĆ;Valpovačka 111, Nard;Valpovo;31550;45.6634319;18.4703556
HR 494 EU;METRO Cash & Carry d.o.o.;Gospodarska 2;Sveta Nedjelja;10431;45.8039672;15.7724819
HR 499 EU;Mesarski obrt MESNICA ĐIKOVIĆ, vl. Marijana Ljubičić;Runovići 648.;Runović;21261;43.3893681;17.2361262
HR 504 EU;Mesnica RAKONIĆ, vl. Tihomir Rakonić;Radnička 71;Nova Gradiška;35400;45.2653366;17.3684376
HR 505 EU;MESO-RAD d.d.;Ante Starčevića 46;Cerić;32221;45.3056035;18.8505843
HR 528 EU;COMPARI 1, vl. Renata Komparić;Valmade 10;Pula;52100;44.8696641;13.8709137
HR 533 EU;PIVKA d.o.o.;CMP Savica - Šanci, Majstorska 3;Zagreb;10000;45.8130967;15.9772795
HR 537 EU;MESNICE KLARIĆ j.d.o.o.;Malenice Donje b.b., Ključ;Drinovci;22324;43.8536354;16.0147941
HR 538 EU;MESNICE GRCIĆ obrt za proizvodnju i prodaju mesa i mesnih proizvoda, vl. Roko Grcić;Badanj, Grcići 10;Drniš;22320;43.8602746;16.1557855
HR 540 EU;OPSKRBA TRADE d.o.o.;Slivno b.b.;Slivno;21272;43.3453717;17.2044091
HR 543 EU;VRGORAČKI PRŠUTI, vl. Nikša Nizić;Kljenak b.b.;Vrgorac;21276;43.1997457;17.3825793
HR 547 EU;S.T.D. d.o.o.;Kućanmarofska ulica 24;Varaždin;42000;46.2999535;16.3586058
HR 549 EU;FIVAS d.o.o.;Selina 2;Čavle;51219;45.3573453;14.4880888
HR 571 EU;PERADARSKI OBRT LONIĆ, vl. Denis Lonić;Ulica Svetog Nikole Putnika 24;Bibinje;23205;44.0711520;15.2838133
HR 588 EU;MESNICA DADIĆ d.o.o.;Bisko 79a, Bisko;Dicmo;21232;43.6351478;16.5957094
HR 592 EU;BERKOVIĆ d.o.o.;Mala Traba 53D;Pazin;52000;45.2391995;13.9363313
HR 596 EU;MARTINJAK d.o.o.;Zadrkovec 41;Komin;10383;46.0038329;16.2846212
HR 602 EU;MESNICA ZVONIMIR proizvodnja, prerada i trgovina na malo mesom, vl. Marko Tonković;Klarićevac b.b., Krivi put;Senj;53270;44.9901533;14.9021159
HR 606 EU;VELDAKS d.o.o.;Internacionalnih brigada 39;Rijeka;51000;45.3419151;14.4461755
HR 607 EU;PREMES d.o.o.;Kringa b.b., Kringa;Tinjan;52444;45.2177273;13.8407452
HR 608 EU;TERRE, obrt za poljoprivrednu proizvodnju, vl. Diana Fero;Mirna 5;Novigrad;52466;45.3164726;13.5941788
HR 609 EU;PIVKA EXPORT IMPORT d.o.o.;Jušići 116b, Jurdani;Jurdani;51213;45.3807249;14.3137946
HR 611 EU;ALVERDE d.o.o.;Premanturska cesta 16;Pula;52100;44.8502589;13.8670381
HR 614 EU;MESNICA BAKIN, vlasnik Anto Kristić;Biškupija 5;Medulin;52203;44.8217860;13.9367142
HR 618 EU;KLAONICA obrt za usluge i proizvodnju, vl. Tihomir Lorković;Vinski Vrh 68 c;Netretić;47271;45.5079070;15.4148906
HR 628 EU;ELCON PREHRAMBENI PROIZVODI d.o.o.;Josipa Kraša 3;Zlatar Bistrica;49247;46.0468832;16.0828721
HR 630 EU;DELTA ST d.o.o.;Dračevac 15;Split;21000;43.5248061;16.4959075
HR 631 EU;BILIĆ, zajednički obrt za obradu mesa, trgovinu i cestovni prijevoz, vl. Ivica Bilić i Ante Bilić;Put Strinje 70;Split;21000;43.5557827;16.4112172
HR 643 EU;OBRT MAKS;Češnjakovci 104;Kaptol;34334;45.4314315;17.7252151
HR 648 EU;EKOMESO d.o.o.;Branka Blečića 5;Rijeka;51000;45.3388195;14.4194047
HR 650 EU;KRALJ BAR-VIL d.o.o.;Vižovlje bb;Veliko Trgovišće;49214;46.0025312;15.8448908
HR 655 EU;MESNICE BOROŠAK d.o.o.;Lijepe naše 33;Klanjec;49290;46.0482640;15.7378781
HR 661 EU;KONI d.o.o.;sveti Kirina 44;Svetvinčenat;52342;45.0878365;13.8821252
HR 664 EU;DELIKATESE JORGO j.d.o.o.;Andrije Štangera 44;Opatija;10413;45.3475617;14.3190466
HR 666 EU;GIR d.o.o.;Paladini 14;Buzet;52420;45.4078767;13.9655905
HR 677 EU;IRIDA  d.o.o.;Petra Zrinskog 34;Daruvar;43500;45.5874519;17.2145954
HR 694 EU;OTOČANKA d.o.o.;Otok Samoborski, Otočka 24;Samobor;10430;45.8018625;15.7097105
HR 703 EU;INTER-DELTA d.o.o.;Magdalenska 29;Koprivnica;48000;46.1535027;16.8270294
HR 710 EU;LEDO plus d.o.o.;Eugena Kumičića 157;Slavonski Brod;35000;45.1646134;18.0175115
HR 719 EU;KUDELIĆ d.o.o.;Bedenica 50a;Bedenica;10381;46.0306185;16.2586771
HR 734 EU;PRŠUT VOŠTANE d.o.o.;Voštane 1/a.;Tijarica;21245;43.5919220;16.9191808
HR 736 EU;Trgovački obrt DAMES - MESNICE, vlasnik Danijel Ribarić;Jadreški 86, Ližnjan;Medulin;52203;44.8217860;13.9367142
HR 737 EU;VALALTA d.o.o.;Rovinjsko selo b.b., ind. zona;Rovinj;52210;45.0807411;13.6417282
HR 738 EU;ANICA BAKMAZ, vl. Ljiljana Matković;Bokanjac, Put Vrela 59;Zadar;23000;44.1168594;15.2353257
HR 741 EU;VINDIJA d.o.o.;Ul. Jakova Gotovca 23;Zagreb;10000;45.8130967;15.9772795
HR 742 EU;VINDIJA d.o.o.;J. Slavenskog 8;Zagreb;10000;45.8130967;15.9772795
HR 754 EU;VESNA LOBORIKA d.o.o.;Loborika 31;Marčana;52206;44.9558431;13.9560445
HR 756 EU;ORADA gourmet d.o.o.;Popovićev put 2c;Matulji;51211;45.3681651;14.3286447
HR 758 EU;KALI TUNA d.o.o.;Put Vele Luke 70;Kali;23272;44.0541021;15.2013364
HR 761 EU;BELJE plus d.o.o.;Imre Nagya 1;Beli Manastir;31300;45.7685974;18.5966902
HR 769 EU;Obrtničko - klaoničko - mesarsko - trgovačka radnja KARALIĆ, vl. Darko Karalić;J.J. Strossmayera 54;Cerna;32272;45.1898993;18.6876548
HR 776 EU;MARKIZA d.o.o.;Žarkovice 15;Nedelišće;40305;46.3773938;16.3960647
HR 784 EU;MERKANT IVANOV d.o.o.;Ante Starčevića 23 g;Zadar;23000;44.1121081;15.2535356
HR 794 EU;PESCAMAR d.o.o.;Ladići bb.;Kanfanar;52352;45.1228399;13.8384985
HR 801 EU;PRERADA MESA VARGA, vl. Velimir Varga;Duga ulica 24;Varaždinske Toplice;42223;46.2095901;16.4253353
HR 802 EU;KLAONICA CESARICA BR. 802, vl. Robert Čačić;Cesarica 303, Karlobag;Karlobag;53288;44.5634057;15.0227812
HR 806 EU;S.I.C. d.o.o.;Republike 29, Vabriga;Tar;52465;45.2999319;13.6262747
HR 811 EU;VUGRINEC d.o.o.;A. Mihanovića 44, Kraj Gornji;Dubravica;10293;45.9547766;15.7318401
HR 815 EU;BRAĆA SIMUNIĆI d.o.o.;Naklice 79;Tugare;21252;43.4600236;16.6744727
HR 817 EU;PO-LI-GO d.o.o.;Ljudevita Gaja b.b.;Sračinec;42209;46.3322794;16.2719433
HR 825 EU;MESNICA MILETIĆ, vl. Zoran Miletić;Stankovci b.b.;Stankovci;23422;43.9068968;15.6948348
HR 835 EU;ARMENTO d.o.o.;Put Marcelina 54;Kaštel Stari;21216;43.5708065;16.3351086
HR 836 EU;PAPALINA d.o.o.;Radoslava Cimermana 62;Zagreb;10000;45.7854759;15.9622168
HR 842 EU;TO MESNICA NAKIĆEN, vl. Svetlan Nakićen;Banjevci 61a;Stankovci;23422;43.9068968;15.6948348
HR 849 EU;OKZ LIPOVICA;Lipovečka 22;Popovača;44317;45.5642491;16.6314516
HR 858 EU;MAT GRUPA d.o.o.;Vidikovac 44;Bjelovar;43000;45.8874072;16.8583713
HR 859 EU;VINDIJA d.o.o.;Mladena Ćatića 1;Županja;32270;45.1018716;18.6878400
HR 885 EU;EURO - MILK d.o.o.;Beloslavec 17 g;Bedenica;10381;46.0356583;16.2213006
HR 887 EU;PRŠUTANA GRADINA d.o.o.;Gradina 1;Studenci;21265;43.5290181;17.0294192
HR 888 EU;ZMH Horvat d.o.o.;Bistrička 4A;Konjščina;49282;46.0516400;16.1757617
HR 889 EU;ISTARSKI PRŠUT DUJMOVIĆ, vl. Nada Dujmović;Kučići 109;Tinjan;52444;45.1805453;13.8294365
HR 895 EU;JADRI - TRADE d.o.o.;Švica 155;Otočac;53220;44.8687963;15.2358684
HR 899 EU;KLAONICA MIHALINEC d.o.o.;Dubrovačka cesta 19;Donja Pušća;10294;45.8928863;15.7866177
HR 914 EU;DALMATINO d.o.o. - Pršutana Zemunik Donji;XVIII ulica 18 a;Zemunik;23222;44.1220966;15.3755347
HR 916 EU;MAREX - GEL d.o.o.;Biogradska 12;Zadar;23000;44.1027949;15.2472323
HR 918 EU;METRO - SPIN d.o.o.;Ul. Bana Jelačića b.b., Križanec;Turčin;42204;46.2586581;16.3595298
HR 924 EU;Mesarsko trgovački obrt MESNICA, vl. Vladimir Tangar;Put Jazvina 16;Trogir;21220;43.5370361;16.2879040
HR 929 EU;MIRACOLO obrt za trgovinu i usluge u cetovnom prometu, vl. Franko Komparić;Mala Vala 37., Valbandon;Fažana;52212;44.9097325;13.8220067
HR 935 EU;VRANA d.o.o.;Peradarnik 1;Biograd na moru;23210;43.9377147;15.4477635
HR 938 EU;PERFA - BIO d.o.o.;Golubovečka 44;Donja Stubica;49240;45.9800718;15.9862065
HR 943 EU;MI BRAĆA PIVAC d.o.o.;4. Gardijske 51;Split;21000;43.5065410;16.5274930
HR 944 EU;NADA POLJAK;Marinci 97;Slavonski Brod;35000;45.1822898;17.9957350
HR 963 EU;DAJNA COMPANY d.o.o.;Put Poja 4;Murter;22243;43.8207631;15.5946763
HR 969 EU;KONZUM plus d.o.o.;Ulica jablanova 27;Osijek;31000;45.5430896;18.6561865
HR 983 EU;APIDAL, vl. Gordana Brljević;Put Počivala 8;Tugare;21252;43.4732899;16.6370079
HR 990 EU;PROMES CVANCIGER d.o.o.;Berislava Pavičića 8;Sisak;44000;45.4983817;16.3724068
HR 1003 EU;BURETIĆ BREGI d.o.o.;Bregi, Anđeli 74b;Matulji;51211;45.3636807;14.3244359
HR 1006 EU;MESNICE BRAĆA PALIĆ d.o.o.;Paukovečka cesta 36, Goričica;Donja Zelina;10382;45.9113619;16.2323638
HR 1013 EU;DIM I SOL, vl. Ivica Alvir;Ulica II 94;Zemunik Donji;23222;44.0974238;15.3520646
HR 1015 EU;PALEKA, mesarsko - trgovački obrt, vl. Mladen Paleka;Ulica II 112a;Zemunik Donji;23223;44.1050024;15.3794791
HR 1016 EU;MEL, vl. Jakov Lovrić;Hrvace 223 A;Hrvace;21233;43.7693623;16.6148690
HR 1028 EU;MESNICE KLARIĆ j.d.o.o.;Ante Trlaje Antića 19;Šibenik;22000;43.7519614;15.8815064
HR 1035 EU;MESOPROMET d.o.o.;M. Krleže br. 31.;Pula;52100;44.8702281;13.8455311
HR 1040 EU;STANIĆ d.o.o.;Mlini, Gornja Čibača 16;Mlini;20207;42.6236872;18.2082717
HR 1049 EU;PRODUKT KOMERC d.o.o.;Heki, Žbrlini 102;Pazin;52000;45.2391995;13.9363313
HR 1061 EU;Trgovačko proizvodni obrt ŠARIĆ, vl. Milan Šarić;Divuljska 5;Zagreb;10000;45.7433883;16.0147436
HR 1070 EU;ROLI d.o.o.;Novakova 53;Split;21000;43.5116383;16.4399659
HR 1072 EU;MINI MLJEKARA VERONIKA d.o.o.;Put Matije Gupca 5;Desinić;49216;46.1479340;15.6688416
HR 1075 EU;TRGOTRENTA d.o.o.;Osiječka 47;Rijeka;51000;45.3267976;14.4422080
HR 1076 EU;PODRAVKA d.d.;Ante Starčevića 32;Koprivnica;48000;46.1688323;16.8188577
HR 1077 EU;PODRAVKA d.d. - Tvornica dječje hrane i kremnih namaza;Danica 16;Koprivnica;48000;46.1889634;16.8396435
HR 1080 EU;KRAŠ d.d.;Ravnice 48;Zagreb;10000;45.8211781;16.0287057
HR 1096 EU;KONES - BI d.o.o.;Veliki Pašijan 67;Garešnica;43280;45.5876968;16.9318289
HR 1099 EU;AGROKOKA - PULA d.o.o.;Valmade 58;Pula;52100;44.8715958;13.8786442
HR 1101 EU;PIK VRBOVEC plus d.o.o.;Marijana Čavića 1;Zagreb;10000;45.8022386;16.0337660
HR 1101-1 EU;ZVIJEZDA plus d.o.o.;Marijana Čavića 1;Zagreb;10000;45.8022386;16.0337660
HR 1102 EU;Klaonica, proizvodnjai prerada mesa, vl. Mario Jagodanović;sveti Bartola 37, Sibinj;Sibinj;35252;45.1903144;17.9095187
HR 1105 EU;MONTANA PLUS d.o.o.;Planinska b.b.;Zagreb;10000;45.8130967;15.9772795
HR 1106 EU;MESARSKO - TRGOVAČKI OBRT MESNICA LEPUR, VL. DRAŽEN LEPUR;Donji Lepuri b.b.;Benkovac;23420;44.0333553;15.6128513
HR 1107 EU;DRNIŠKE DELICIJE MARAN d.o.o.;Ćevidi 11, Trbounje;Drniš;22320;43.8602746;16.1557855
HR 1110 EU;BIOGAL d.o.o.;Milke Trnine 20, Donji Daruvar;Daruvar;43500;45.5928272;17.2237617
HR 1111 EU;NAF PROMET d.o.o.;A. Šenoe 15, Lužan;Belovar;10363;45.8986869;16.8421977
HR 1112 EU;OBRT ZA PROIZVODNJU, PRERADU I KONZERVIRANJE MESA I MESNIH PROIZVODA BOĐIRKOVIĆ, VL. ŽIVOJIN BOĐIRKOVIĆ;Školska 14;Borovo;32227;45.4063669;18.9811482
HR 1117 EU;VINDIJA d.o.o. - DC Poreč;Karla Huguesa 21;Poreč;52440;45.2249796;13.5965695
HR 1120 EU;JELENIĆ d.o.o.;Slavčići 177;Sveti Petar u šumi;52404;45.1816824;13.8641100
HR 1123 EU;PRŠUT - POSEDARJE d.o.o.;M.Vedrića 8;Posedarje;23242;44.2111732;15.4776951
HR 1128 EU;PO POROPAT, vl. Igor Poropat;Kirmenjak 13;Poreč;52440;45.2271961;13.5957333
HR 1130 EU;ROŽANA ČERVAR - pakirni centar za jaja;Sveti Servul 7b;Novigrad;52466;45.3317937;13.5817657
HR 1131 EU;MESNICA ERSTIĆ, VL. ANTE ERSTIĆ;Zagreben b.b.;Baška Voda;21320;43.3646282;16.9630244
HR 1135 EU;BAKALAR PROIZVODNJA j.d.o.o.;Jamine 34a;Zagreb;10000;45.8259971;15.8812053
HR 1141 EU;NATURA d.o.o.;Kralja Zvonimira 42 A;Vinkovci;32100;45.2903423;18.8063493
HR 1144 EU;TO HOBOTNICA;Nikole Tesle 35;Duga Resa;47250;45.4508875;15.4919530
HR 1148 EU;P. I. PROM d.o.o.;V. Kolandera 1;Varaždin;42000;46.3079645;16.3378198
HR 1150 EU;MESNICA JAŽIĆ, vl. Sveto Jažić;Glavina Gornja 18a;Imotski;21260;43.4585995;17.2076996
HR 1152 EU;LORIMEX d.o.o.;Marčana 328;Marčana;52206;44.9558431;13.9560445
HR 1153 EU;ZVEČEVO d.d.;Kralja Zvonimira 1;Požega;34000;45.3400330;17.6808870
HR 1156 EU;Proizvodni, trgovački i ugostiteljski obrt KARLO, vl. Stjepan Ortović;Temovec b.b.;Sveti Križ Začretje;49223;46.0800162;15.9067264
HR 1165 EU;Mesarsko trgovački obrt BINGULA, vl. Boris Bingula;Veliko brdo 8a;Popovača;44317;45.5622724;16.6401349
HR 1166 EU;BENIMA d.o.o.;Skopska 32;Karlovac;47000;45.4794461;15.5445079
HR 1169 EU;SIRANA IPAK d.o.o.;Put Čikole 3;Pakovo Selo;22320;43.8167546;16.0925292
HR 1174 EU;PUNTICA d.o.o.;Ćoze 18;Vinjerac;23247;44.2400219;15.4806249
HR 1176 EU;MAESTRALE, vl. Davor Bertović;Vladimira Gortana 16;Veli Lošinj;51551;44.5201529;14.5026814
HR 1180 EU;PERADARSTVO OBRUBIĆ;Krušljevo Selo 64;Oroslavje;49243;45.9962496;15.9144491
HR 1184 EU;ALDIN BEGOVIĆ;Čehovec 121;Prelog;40323;46.3366064;16.6147940
HR 1193 EU;MESNA INDUSTRIJA ŠAKIĆ d.o.o.;Vlasača 6;Šestanovac;21250;43.4536242;16.9120532
HR 1198 EU;MESARSKA RADNJA, vl. Antonio Karakaš;Frankopanska 12;Brinje;53260;45.0053822;15.1388515
HR 1199 EU;MESNICA PRELEC d.o.o.;Harambašićeva 42;Strmec Samoborski;10434;45.8106060;15.7867626
HR 1217 EU;MESNICA MARKET ŽUŽIĆ;Zagrebačka b.b.;Krk;51500;45.0269806;14.5752862
HR 1219 EU;OBRT BAK, vl. Željko Bak;Kneza Domagoja 30;Vinkovci;32100;45.2830643;18.8142553
HR 1221 EU;STANIĆ d.o.o.;Marinići b.b., Rijeka - PC Gramat;Viškovo;51216;45.3780491;14.3858441
HR 1237 EU;PAUSIN d.o.o.;Kortina 48;Savudrija;52475;45.5007791;13.5044472
HR 1244 EU;MESARSKO - TRGOVAČKA RADNJA, vl. Zlatko Uremović;Ledenice b.b., Ledenice;Ledenice;51251;45.1367125;14.8410058
HR 1250 EU;EUROPA STAR d.o.o. - Supermarket Dimeglio;Trg 1. istarske brigade 12;Pula;52100;44.8770652;13.8575643
HR 1254 EU;MESNICA DAMIR, vl. Damir Spinčić;Put Luskino b.b.;Matulji;51211;45.3636807;14.3244359
HR 1257 EU;VARŽAK-M;Vrbovo Posavsko 54, Orle;Velika Gorica;10410;45.7155672;16.0717164
HR 1260 EU;Mesarnica IKIĆ, mesarsko - trgovački obrt, vl. Mate Ikić;Gorica 152;Sukošan;23206;44.0463805;15.3145054
HR 1262 EU;PERADARNIK GUNJA, vl. Ilija Lučić;T. Pejića 51;Gunja;32260;44.8879270;18.8264350
HR 1274 EU;KORNAT ITTICA d.o.o.;Škabrnjska ulica 5;Pakoštane;23211;43.9082721;15.5060948
HR 1282 EU;KRAŠ d.o.o.;Vukovarska cesta 209/a;Osijek;31000;45.5530369;18.7353095
HR 1287 EU;BROSS TRADE d.o.o.;4. Gardijske 51, Kamen;Split;21000;43.5185096;16.5292221
HR 1290 EU;SUPER - MES d.o.o.;Bana Josipa Jelačića 146;Samobor;10430;45.8130149;15.7068359
HR 1304 EU;VINDIJA d.o.o.;Uvala Bregdetti 23;Zadar;23000;44.1168594;15.2353257
HR 1308 EU;MOJA TVRTKA d.o.o.;Jurja Dalmatinca 6;Samobor;10430;45.8071686;15.7291170
HR 1312 EU;MLJEKARA LATUS d.o.o.;Gornji Orbanići 12/d;Žminj;52341;45.1439098;13.9086751
HR 1315 EU;SPAJIĆ NOVI d.o.o.;Put Blaca 62;Solin;21210;43.5636915;16.5075470
HR 1316 EU;PERUTNINA PTUJ - PIPO d.o.o.;R. Steinera 7;Čakovec;40000;46.3892305;16.4368593
HR 1318 EU;KONZUM plus d.o.o.;Marijana Čavića 1a;Zagreb;10000;45.7993304;16.0312320
HR 1318-1 EU;LEDO plus d.o.o.;Marijana Čavića 1a;Zagreb;10000;45.7993304;16.0312320
HR 1326 EU;STANIĆ d.o.o.;Vukovarska 318;Osijek;31000;45.5566434;18.6880842
HR 1333 EU;STANIĆ d.o.o.;Slavonska avenija 22;Zagreb;10000;45.7963891;16.0311846
HR 1333-1 EU;DUKAT d.d.;Slavonska avenija 22;Zagreb;10000;45.7963891;16.0311846
HR 1334 EU;BRANKA d.o.o.;Optujska 182;Varaždin;42000;46.3128024;16.3301488
HR 1335 EU;RIBARSKA ZADRUGA KOMIŽA;Hrvatskih iseljenika 4;Komiža;21485;43.0413407;16.1141622
HR 1353 EU;MESNICASLADIĆ, vl. Zoran i Niko Sladić;Mihaljevići b.b., Bilice;Šibenik;22000;43.7340647;15.8944767
HR 1354 EU;MESNICA BOŠNJAK, vl. Petar Bošnjak;Put Gospe Stomorije 30;Kaštel Novi;21217;43.5625776;16.3286035
HR 1359 EU;BEL CRO TRADE d.o.o.;Brištani, Bačići 1;Drinovci;22324;43.8536354;16.0147941
HR 1367 EU;PISINIUM d.o.o.;Žbrlini 103;Pazin;52000;45.2391995;13.9363313
HR 1370 EU;V.I.R.I.B.U.S. d.o.o.;Gračanski ribnjak b.b.;Zagreb;10000;45.8130967;15.9772795
HR 1372 EU;MESNICE i KLAONICA LUKIN d.o.o.;Babindub 1/a;Zadar;23000;44.0979273;15.3102454
HR 1375 EU;VIVITA d.o.o.;4. Gardijske brigade 53E;Split;21000;43.5584443;16.3421260
HR 1385 EU;HIPP CROATIA d.o.o.;Kralja Zvonimira 1;Glina;44400;45.3428791;16.0986020
HR 1390 EU;RANKO DOMINIĆ - KLAONICA PERADI;Braće Radić 43;Mala Subotica;40321;46.3438366;16.5394560
HR 1392 EU;METRO CASH & CARRY d.o.o. - VPC Jankomir;Jankomir 31;Zagreb;10000;45.8003261;15.8813481
HR 1393 EU;MESNICA ŠTURLIĆ, obrt za proizvodnju i trgovinu, vl. Kristinko Šturlić;Marije Snježne 92;Zagreb;10000;45.8130967;15.9772795
HR 1394 EU;IGO-MAT d.o.o.;Otruševec 15a;Bregana;10432;45.8382973;15.6881481
HR 1398 EU;ŠTEVANJA mesarski obrt, vl. Grozdana Stevanja;Gorica-Glavica, Dr. Franje Tuđmana 13;Sukošan;23206;44.0463805;15.3145054
HR 1405 EU;PROBIOTIK d.o.o.;Ulica grada Gospića 3;Zagreb;10000;45.8011321;16.0321512
HR 1410 EU;VINDIJA d.o.o.;Industrijska zona Jug 11;Osijek;31000;45.5419151;18.6586061
HR 1419 EU;DUKAT d.d., DC Stobreč;4. Gardijske brigade 53;Split;21000;43.5584443;16.3421260
HR 1430 EU;LOVIŠTE SPAČVA - šumarija Vrbanja;Spačva -Lovište SPAČVA;Vrbanja;32254;44.9821315;18.9279039
HR 1433 EU;ŠKOKIĆ d.o.o.;Put Strinje 68;Kaštel Sućurac;21212;43.5557730;16.4110937
HR 1444 EU;MLJEKAR LOGISTIKA d.o.o.;Lemeš 6;Veliki Raven;48265;45.9888204;16.4757850
HR 1445 EU;DOM ZA ODRASLE OSOBE LOBOR-GRAD;Markušbrijeg 131;Lobor;49253;46.1201932;16.0665368
HR 1446 EU;HRVATSKE ŠUME d.o.o. - lovište Radinje XII/16;Nikole Ljubičića 100, Magić Mala;Nova Kapela;35410;45.1957046;17.6433082
HR 1447 EU;AQUA FARMA d.o.o.;Uvala Teplo, Raški zaljev;Raša;52223;45.0805940;14.0838455
HR 1465 EU;MARKO - obrt za dimljenje ribe, vl. Branka Petrunić - Becker;Josipa bana Jelačića 25;Duga Resa;47250;45.4514933;15.4960625
HR 1477 EU;Prerada mesa i mesnica KRAMARIĆ, vl. Stjepan Kramarić;Polonje 112;Sveti Ivan Zelina;10380;45.9597901;16.2430942
HR 1484 EU;ORADA ADRIATIC d.o.o.;Rujevica 6;Rijeka;51000;45.3461571;14.4084791
HR 1486 EU;BRAĆA TOMASOVIĆ, obrt za trgovinu, vl. Nikola Tomasović;Put Gospe Lurdske 55;Kučiće;21208;43.4310778;16.8109601
HR 1490 EU;BLAŽ, obrt za trgovinu mesom, vlasnik Željko Blažević;Škrljevo 6;Rijeka;51000;45.3267976;14.4422080
HR 1495 EU;DUKAT d.d., DC Zadar;Gaženička cesta 8;Zadar;23000;44.1012493;15.2557953
HR 1504 EU;NUJIĆ MARKO d.o.o. - pakirni centar za jaja;Ribnica 201;Novo Čiče;10415;45.7048175;16.1184629
HR 1505 EU;MALTARIĆ, vl. Zdravko Maltarić;Željka Selingera b.b.;Koprivnica;48000;46.1672461;16.8102183
HR 1506 EU;PROFESIONALNI RIBAR - ROMANO PRELEVIĆ, vl. Romano Prelević;Šibenski zaljev -akvat. rijeke Krke;Šibenik;22000;43.7340647;15.8944767
HR 1508 EU;AGRO RIBARSKA ZADRUGA BRANITELJA;Pirovački zaljev - Prosika b.b.;Pirovac;22213;43.8169387;15.6678671
HR 1510 EU;R.A.K. Obrt za ribolov i podvodne djelatnosti;Medulinski zaljev;Pula;52100;44.8702281;13.8455311
HR 1514 EU;MASEN d.o.o.;Burići 3;Kanfanar;52352;45.1228399;13.8384985
HR 1515 EU;Obrt Medena;Bečka 8;Virovitica;33000;45.8358832;17.3943642
HR 1516 EU;NATURA BEEF d.o.o.;Debelo Brdo 9, Gospić;Gospić;53000;44.5464046;15.3754210
HR 1521 EU;MIJUKIĆ - PROM, vl. Jure Lešina;Runovići 242;Runović;21261;43.3893681;17.2361262
HR 1526 EU;BERMES d.o.o.;Zagorska 14;Donja Pušća;10294;45.9154367;15.7743807
HR 1531 EU;DAGNJA obrt za morski ribolov, marikulturu i trgovinu, vl. Mirjana Pejić;Raški zaljev - ispod Ulika;Labin;52220;45.0913954;14.1236014
HR 1534 EU;MM Obrt za proizvodnju, preradu i trgovinu;Črnkovečka 61;Zagreb;10000;45.7717478;16.0389878
HR 1537 EU;KATIĆ, obrt za ribarstvo, trgovinu i usluge, vl. Ivica Katić;Šibenski zaljev - Ušće rijeke Krke;Šibenik;22000;43.7340647;15.8944767
HR 1544 EU;Otpremni centar SARGUS;Savudrijska vala;Savudrija;52475;45.5007791;13.5044472
HR 1551 EU;MI CEROVSKI d.o.o.;Pod Goljakom 21, G. Dragonožec;Donji Dragonožec;10253;45.6610681;15.9471656
HR 1556 EU;HEP PROIZVODNJA d.o.o. - Ribogojilište Vitunj;Vitunj 80;Ogulin;47300;45.2634099;15.2351850
HR 1563 EU;KOZJAK DVA d.o.o.;Tikvarin 8;Kaštel Kambelovac;21214;43.5490565;16.3834154
HR 1565 EU;PERADARSTVO BEŠTAK, vl. Vlado Beštak;Beštaki 25, Adamovec;Sesvete;10360;45.9023794;16.1550473
HR 1567 EU;HRVATSKE ŠUME d.o.o., Uprava šuma Osijek, Šumarija Tikveš;Tikveš b.b., Tikveš;Bilje;31327;45.6039828;18.7437649
HR 1568 EU;BASTALEC MESNICE j.d.o.o.;Blaškovečka 28, Blaškovec;Donja Zelina;10382;45.9113619;16.2323638
HR 1575 EU;OBRT PLEŠA, vl. Dražen Pleša;Homerova 1;Orahovica;33515;45.5327586;17.8779749
HR 1576 EU;EKO DRUŽBA d.o.o.;Put Vrbovnika b.b.;Split;21000;43.5116383;16.4399659
HR 1576-1 EU;KUSIĆ TRGOVINA d.o.o.;Put Vrbovnika b.b.;Split;21000;43.5116383;16.4399659
HR 1582 EU;SRDELA d.o.o.;Serv. - gosp. zona Žedno-Drage b.b.;Supetar;21400;43.3825826;16.5532114
HR 1586 EU;TRGOVAČKO PROIZVODNI OBRT MESNICA NAVRAČIĆ, VL. MARIO NAVRAČIĆ;Pinturska 6, Hrašće Turopoljsko;Zagreb;10000;45.7271335;16.0096607
HR 1591 EU;MELIOKOMERC d.o.o.;Joakima Rakovca 10;Umag;52470;45.4308674;13.5259035
HR 1592 EU;METRO CASH & CARRY d.o.o. - VPC Sesvete;Slavonska avenija 71;Sesvete;10360;45.8051924;16.1146478
HR 1595 EU;MEGGLE HRVATSKA d.o.o.;Ventilatorska 12, Lučko;Lučko;10250;45.7559418;15.8899435
HR 1607 EU;PRŠUTANE JASENICE d.o.o.;Jasenice b.b.;Jasenice;23243;44.2291095;15.5765784
HR 1608 EU;DANIČIĆ PROMET d.o.o.;Ćira Carića 1;Dubrovnik;20000;42.6600186;18.0775933
HR 1612 EU;BRODOKOMERC NOVA d.o.o. - DC A. K. Miošića;A.K.Miošića b.b.;Rijeka;51000;45.3267976;14.4422080
HR 1620 EU;MESNICA - OBRT, vl. Drago Vugrinec;Sutlanska Dolina 87, Prosinec;Dubravica;10293;45.9547766;15.7318401
HR 1625 EU;REGATA, obrt za trgovinu, proizvodnju i usluge, vl. Mladen Glušević;Hrvatske mornarice 10;Split;21000;43.5172399;16.4453273
HR 1629 EU;ŠKOLJKARSTVO MUŠULA, vl. Cvijetko Matković;Malost. zaljev - Bistrina b.b.;Topolo;20205;42.9091083;17.7047793
HR 1683 EU;REŠKOVAC d.o.o.;Trg I. Kukuljevića 6;Zagreb;10000;45.8130967;15.9772795
>>>>>>> main
HR 1697 EU;SubZero Cold Storage d.o.o.;Put sjeverne luke b.b.;Split;21000;43.5116383;16.4399659
HR 1703 EU;LEDO plus d.o.o.;Vukovarska 314;Osijek;31000;45.5477600;18.7385811
HR 1710 EU;DUKAT d.d., DC Pula;Labinska 2;Pula;52100;44.8826071;13.8656951
HR 1715 EU;MARILAGUNA d.o.o.;Šikićanska 12, Šikići;Pula;52100;44.8603257;13.9014455
HR 1718 EU;PARMA FISH d.o.o.;Ulica hrvatske vlade 1;Stankovci;23422;43.9068968;15.6948348
HR 1719 EU;MEDUZA d.o.o.;M. Vlašića 26c;Poreč;52440;45.2271961;13.5957333
HR 1726 EU;LUCIJA Obrt za uzgoj peradi i ugostiteljstvo;Valtursko Pole 191a, Valtura;Ližnjan;52203;44.8280411;13.9576075
HR 1727 EU;PIKO d.o.o.;Volavje 32 d;Jastrebarsko;10450;45.6716565;15.6503928
<<<<<<< HEAD
HR 173 EU;AIPK - TRGOVINA d.o.o.;Samoborska 134;Zagreb;10000;45.8131554;15.8751553
HR 173-1 EU;CELJSKE MESNINE Z'DEŽELE d.o.o.;Samoborska 134;Zagreb;10000;45.8131554;15.8751553
HR 173-10 EU;ADRIA FISH d.o.o.;Samoborska 134;Zagreb;10000;45.8131554;15.8751553
HR 173-12 EU;EKO NOMAD d.o.o.;Samoborska 134;Zagreb;10000;45.8131554;15.8751553
HR 173-14 EU;ADRIATIC FOOD d.o.o.;Samoborska 134;Zagreb;10000;45.8131554;15.8751553
HR 173-15 EU;DAR-MAR FOOD d.o.o.;Samoborska 134;Zagreb;10000;45.8131554;15.8751553
HR 173-16 EU;BIALU d.o.o.;Samoborska 134;Zagreb;10000;45.8131554;15.8751553
HR 173-17 EU;STELLAR FOODS d.o.o.;Samoborska 134;Zagreb;10000;45.8131554;15.8751553
HR 173-19 EU;FIL-AVSO Air Tech d.o.o.;Samoborska 134;Zagreb;10000;45.8131554;15.8751553
HR 173-2 EU;NIGIRI ZAGREB j.d.o.o.;Samoborska 134;Zagreb;10000;45.8131554;15.8751553
HR 173-20 EU;MELI TEHNOLOGIJA d.o.o.;Samoborska 134;Zagreb;10000;45.8131554;15.8751553
HR 173-3 EU;CROFISH, obrt za trgovinu i prijevoz, vl. Denis Varović;Samoborska 134;Zagreb;10000;45.8131554;15.8751553
HR 173-5 EU;KLAROM DELICIJE d.o.o.;Samoborska 134;Zagreb;10000;45.8131554;15.8751553
HR 173-7 EU;MARI-TRGOVINA d.o.o.;Samoborska 134;Zagreb;10000;45.8131554;15.8751553
HR 1736 EU;IL MIO MARE d.o.o.;4. Gardijske brigade 31;Split;21000;43.5584443;16.3421260
HR 175 EU;RADOVAN PETROVIĆ d.o.o.;Tina Ujevića 7;Velika Gorica;10410;45.7170032;16.0794353
HR 1752 EU;ORADA j.d.o.o.;Supetarska Draga 48;Rab;51280;44.7562894;14.7607367
HR 1753 EU;MESNICA ZDRILIĆ j.d.o.o.;Gorica, z.p. Zemunik;Zemunik;23222;44.1220966;15.3755347
HR 177 EU;PAMIN d.o.o.;Industrijska zona  Kukuljanovo, Radna zona R-29;Kukuljanovo;51227;45.3264757;14.5227691
HR 1791 EU;MESNA INDUSTRIJA RAVLIĆ d.o.o.;Otok b.b., Harkanovci;Zelčin;31227;45.6144726;18.3657684
HR 18 EU;SILMA d.o.o.;Petkovec Toplički 42C;Varaždinske Toplice;42223;46.1937274;16.3946491
=======
HR 1736 EU;IL MIO MARE d.o.o.;4. Gardijske brigade 31;Split;21000;43.5584443;16.3421260
HR 1752 EU;ORADA j.d.o.o.;Supetarska Draga 48;Rab;51280;44.7562894;14.7607367
HR 1753 EU;MESNICA ZDRILIĆ j.d.o.o.;Gorica, z.p. Zemunik;Zemunik;23222;44.1220966;15.3755347
HR 1791 EU;MESNA INDUSTRIJA RAVLIĆ d.o.o.;Otok b.b., Harkanovci;Zelčin;31227;45.6144726;18.3657684
>>>>>>> main
HR 1811 EU;MIHALJINAC d.o.o.;Kapelica 81;Garešnica;43280;45.5876968;16.9318289
HR 1813 EU;T.K. ŠIKAČ d.o.o.;Braće Radića 101;Sveti Ivan Žabno;48214;45.9467166;16.6193041
HR 1814 EU;KOKA PRODUKT;Kralja Tomislava 28, Klokočevik;Trnjani;35211;45.1909460;18.1340880
HR 1827 EU;SMJELI d.o.o.;Domovinskog rata 203;Dugopolje;21204;43.5830429;16.5819750
HR 1828 EU;Sušionica mesa GLOBUS d.o.o.;Stilja b.b.;Vrgorac;21276;43.1997457;17.3825793
HR 1839 EU;LEKO d.o.o.;Sinac 155a;Otočac;53220;44.8687963;15.2358684
HR 1844 EU;METRO CASH & CARRY d.o.o. - PC Čavle;Bujanovo 10;Čavle;51219;45.3515898;14.4919903
HR 1848 EU;PEPUR COMMERCE d.o.o.;Vinkovačka b.b.;Split;21000;43.5116383;16.4399659
<<<<<<< HEAD
HR 185 EU;ASCOMMERCE d.o.o.;Slobodna zona, Istično predgrađe b.b.;Osijek;31000;45.5548793;18.6953685
=======
>>>>>>> main
HR 1858 EU;KOESTLIN d.d.;Slavonska cesta 2a;Bjelovar;43000;45.8939393;16.8499638
HR 1860 EU;Poljoprivredno gospodarstvo OREHOVEC;Franje Sovića 31a, Veliki Bukovec;Mali Bukovec;42231;46.2857024;16.7382994
HR 1861 EU;STANIĆ d.o.o.;Kerestinečka cesta 57A, Kerestinec;Sveta Nedjelja;10431;45.7968126;15.7769140
HR 1861-1 EU;MANIRA d.o.o.;Kerestinečka cesta 57A, Kerestinec;Sveta Nedjelja;10431;45.7968126;15.7769140
HR 1861-2 EU;GAVRILOVIĆ d.o.o.;Kerestinečka cesta 57A, Kerestinec;Sveta Nedjelja;10431;45.7968126;15.7769140
HR 1864 EU;MESNICE, vl. Zdravko Prosenjak;Nikole Šipuša 3;Sisak;44000;45.4921892;16.3761138
<<<<<<< HEAD
HR 187 EU;MIRNA d.d.;G. Paliaga 8;Rovinj;52210;45.0807411;13.6417282
HR 1878 EU;LOVAČKO DRUŠTVO FAZAN - Darda;Ljudevita Gaja 1a;Darda;31326;45.6216591;18.6945505
HR 1887 EU;MESNICA BARAN, vl. Mladin Baran;Kričke, Midenjak 24;Drniš;22320;43.8602746;16.1557855
HR 1899 EU;OPG MODIC, vl. Dragan Modic;Ulica Ljudevita Gaja 126;Bošnjaci;32275;45.0547522;18.7626852
HR 190 EU;MESNICA KANURIĆ, proizvodno trgovački obrt, vl. Sanel Kanurić;Prespanska 48;Zagreb;10000;45.8078518;15.9192133
HR 192 EU;METRO CASH & CARRY d.o.o. - VPC Osijek;Kneza Trpimira 28;Osijek;31000;45.5433860;18.6881133
HR 1921 EU;NOCLERIUS d.o.o.;Hrvatskog proljeća 18;Gračac;23440;44.2983533;15.8550792
HR 1925 EU;MARKOS FOOD d.o.o.;Ivana Granđe 36, Šašinovec;Sesvete;10360;45.8435633;16.1639241
HR 193 EU;MESNICA NOVOTNY;Toplička 111, Kneginec Gornji;Turčin;42204;46.2586581;16.3595298
HR 1943 EU;STUDENAC d.o.o.;Josipa Lončara 3;Zagreb;10000;45.8079256;15.8670284
HR 195 EU;DERMA d.d.;Podravska ulica 13;Varaždin;42000;46.3080994;16.3600154
=======
HR 1878 EU;LOVAČKO DRUŠTVO FAZAN - Darda;Ljudevita Gaja 1a;Darda;31326;45.6216591;18.6945505
HR 1887 EU;MESNICA BARAN, vl. Mladin Baran;Kričke, Midenjak 24;Drniš;22320;43.8602746;16.1557855
HR 1899 EU;OPG MODIC, vl. Dragan Modic;Ulica Ljudevita Gaja 126;Bošnjaci;32275;45.0547522;18.7626852
HR 1921 EU;NOCLERIUS d.o.o.;Hrvatskog proljeća 18;Gračac;23440;44.2983533;15.8550792
HR 1925 EU;MARKOS FOOD d.o.o.;Ivana Granđe 36, Šašinovec;Sesvete;10360;45.8435633;16.1639241
HR 1943 EU;STUDENAC d.o.o.;Josipa Lončara 3;Zagreb;10000;45.8079256;15.8670284
>>>>>>> main
HR 1950 EU;OREGON d.o.o.;Petrci 26, Viškovo;Viškovo;51216;45.3706148;14.4031969
HR 1953 EU;PANONIS d.o.o.;Požeška 80a;Slavonski Brod;35000;45.1810148;17.9813405
HR 1964 EU;IVICA LIŠČEVIĆ;Zrinska 103;Nijemci;32245;45.1413883;19.0274767
HR 1974 EU;LEDO plus d.o.o.;Knežica bb;Dubrovnik;20000;42.6491029;18.0939501
<<<<<<< HEAD
HR 199 EU;OLETIĆ d.o.o.;Stanetinec 37A;Štrigova;40312;46.4370160;16.2687508
HR 1993 EU;OPG Perakić, vl. Zdenko Perakić;Ulica Vladimira Nazora 77;Bošnjaci;32275;45.0464987;18.7617370
HR 1995 EU;Trgovački obrt - MESNICA RODBINIĆ, vl. Robert Rodbinić;Potočani 8;Zagreb;10000;45.8556697;15.9539631
HR 1997 EU;SRDELICA, obrt za trgovinu, vl.Paula Ševelj;Dubrovačka 73;Makarska;21300;43.2865240;17.0305924
HR 2 EU;BELJE plus d.o.o.;Bele Bartoka 33;Beli Manastir;31300;45.7674062;18.5879895
HR 20 EU;OPG Šurlan Igor;Brezje 98;Lopatinec;40311;46.4206789;16.3961275
=======
HR 1993 EU;OPG Perakić, vl. Zdenko Perakić;Ulica Vladimira Nazora 77;Bošnjaci;32275;45.0459088;18.7626677
HR 1995 EU;Trgovački obrt - MESNICA RODBINIĆ, vl. Robert Rodbinić;Potočani 8;Zagreb;10000;45.8556697;15.9539631
HR 1997 EU;SRDELICA, obrt za trgovinu, vl.Paula Ševelj;Dubrovačka 73;Makarska;21300;43.2865240;17.0305924
>>>>>>> main
HR 2000 EU;OPG Zlatko Birovljević;J.J.Strossmayera 6;Petrijevci;31208;45.6043402;18.5434124
HR 2007 EU;MESNICA MIHALIĆ d.o.o.;Trg Republike 14, Nedelišće;Nedelišće;40305;46.3774917;16.3855302
HR 2010 EU;PARIĆ d.o.o;Savska 2c;Sesvete;10360;45.8128552;16.1178961
HR 2011 EU;HRVATSKE ŠUME d.o.o.- Babinac lovačka kuća;Babinac 178;Babinac;43273;45.1802635;18.0469781
HR 2012 EU;OPG MILAN ANTOLOVIĆ;Bašići 28b;Tinjan;52444;45.2177273;13.8407452
HR 2013 EU;ŠIŠ - MAR j.d.o.o.;Put Nehaja 9, Kali, otok Ugljan;Kali;23272;44.0635711;15.2063737
HR 2015 EU;MD TRADE, vl. Matija Kaštelan;Barbat 656A;Rab;51280;44.7280134;14.8152552
HR 2031 EU;LIDL HRVATSKA d.o.o.;Čabdin 56;Jastrebarsko;10450;45.6478855;15.6754932
HR 2032 EU;ANCORA COMMERCE d.o.o.;Ulica Miće Marchija 5;Hvar;21450;43.1797775;16.4401526
<<<<<<< HEAD
HR 204 EU;Poljoprivredno gospodarstvo JANČEC, vl. Danijela Jančec-Kramar;Donji Pustakovec 53;Prelog;40323;46.3366064;16.6147940
=======
>>>>>>> main
HR 2065 EU;KONZUM plus d.o.o.;Tenturija 62A;Dubrovnik;20000;42.6707691;18.1335789
HR 2069 EU;DRNIŠKA PRŠUTANA d.o.o.;Razvođe, Lacići 21;Oklaj;22303;43.9612399;16.0779715
HR 2078 EU;STANIĆ d.o.o.;Uvala Bregdeti b.b.;Zadar;23000;44.1168594;15.2353257
HR 2085 EU;SQUALUS d.o.o.;Labinska 14;Pula;52100;44.8814818;13.8645178
HR 2087 EU;METRO CASH & CARRY d.o.o. - VPC Zadar;Murvica 1d, Poličnik;Poličnik;23241;44.1332031;15.3022070
HR 2089 EU;STANIĆ d.o.o.;A. Smareglija b.b.;Vodnjan;52215;44.9603387;13.8497802
HR 2091 EU;OPG Samson Andabaka;Vladimira Nazora 79;Otok;32252;45.1465332;18.8778021
HR 2093 EU;ŽELJKO RUPČIĆ;Božidara Adžije 58;Đakovo;31400;45.3180143;18.3997529
<<<<<<< HEAD
HR 21 EU;KLAONICA 32 d.o.o.;Nikole Kramarića 32;Velika Mlaka;10408;45.7308411;16.0280369
=======
>>>>>>> main
HR 2102 EU;ŽUPKA d.o.o.;Lazine b.b.;Mlini;20207;42.6236872;18.2082717
HR 2109 EU;KOŠNICA, vl. Viktorija Dolenec;Sesvetska cesta 84;Sesvete;10360;45.8246124;16.1371867
HR 2122 EU;MIH SIRANA - KOLAN d.o.o.;Stanić 31;Kolan;23251;44.4938821;14.9612564
HR 2133 EU;NERIMAR d.o.o.;Jušići 104 b, Jurdani;Jurdani;51213;45.3807249;14.3137946
HR 2135 EU;OPG Oriela Fatorić;Ferenci 36A;Vižinada;52447;45.3148163;13.7534404
HR 2140 EU;OPG DEMERAC, vl. Nikolina Demerac;Stara Rača 34;Nova Rača;43272;45.7988038;16.9521934
HR 2143 EU;KOKA TOMCRO, suvl. Ivan i Ante Knežević;Ždrilo 18;Vinjerac;23247;44.2564172;15.4639163
HR 2154 EU;ITTICA VI PI d.o.o.;Benčani 22;Viškovo;51216;45.3760995;14.4184651
HR 2155 EU;MORE - LOŠINJ d.o.o.;Dražica 21;Mali Lošinj;51550;44.5261346;14.4718618
HR 2165 EU;ZIGANTE  TARTUFI d.o.o.;Portoroška 15, Plavonija;Buje;52460;45.4083871;13.6587529
HR 2176 EU;ŠUVAK - zajednički obrt za klanje, obradu i preradu mesa, vl. Predrag Šuvak i Antonio Šuvak;M. Gupca 26;Gradina;33411;45.8562218;17.5155693
HR 2183 EU;Mesnica i prerada mesa BLAŽ FUĆAK, vl. Dolores Fućak - Rački;Buzdohanj 16;Čavle;51219;45.3573453;14.4880888
HR 2186 EU;Zajednički mesarski obrt ŽEŽELIĆ, vl. Damir Žeželić i Neven Žeželić;Dolnja cesta 12;Čavle;51219;45.3530407;14.4900606
HR 2195 EU;SLAVONICA d.o.o.;Industrijska 5;Slatina;33520;45.7090044;17.6977744
HR 2196 EU;PETASON d.o.o.;Vranjički put 12, Vranjic;Vranjic;21211;43.5292906;16.4798289
HR 2198 EU;MLJEKARA VODOPIJEVEC;Paukovečka 59, Paukovec;Donja Zelina;10382;45.9113619;16.2323638
HR 2200 EU;AGRIMARE d.o.o.;Mate Vlašića 26/8;Poreč;52440;45.2306988;13.6196551
HR 2204 EU;PROMESS d.o.o.;A. Stepinca 41;Mala Subotica;40321;46.3758853;16.5295559
HR 2205 EU;BLAŽEKA d.o.o.;Donji  Pustakovec 59;Prelog;40323;46.3366064;16.6147940
HR 2207 EU;KULEN HRUŠKA, obrt za proizvodnju i usluge, vl. Damir Hruška;Bjeliševac 21;Kutjevo;34340;45.3804482;17.8426482
<<<<<<< HEAD
HR 222 EU;ŽGANJER, vl. Lidija Žganjer Gržetić;Jaškovo 51;Ozalj;47280;45.5651746;15.4784166
=======
>>>>>>> main
HR 2222 EU;VINĐIN - MESNICA, VLASNIK Marko Duvnjak;Selnička ulica 5;Jakovlje;10297;45.9501009;15.8576179
HR 2241 EU;BUTKOVIĆ d.o.o. - restoran TAMARIS;Zagrebačka 5;Zadar;23000;44.1144840;15.2550856
HR 2247 EU;VINDIJA d.o.o.;Dugopoljska 23;Dugopolje;21204;43.5925031;16.5832077
HR 2248 EU;STANIĆ d.o.o.;Bana Jelačića 18;Dugopolje;21204;43.5913351;16.5809779
HR 2265 EU;PTO FRANKULIN, vl. Nensi Kamenar;Brajde 2, Grobnik;Čavle;51219;45.3573453;14.4880888
<<<<<<< HEAD
HR 2266 EU;OPG Damir Lenić;Vladimira Nazora 97;Bošnjaci;32275;45.0464987;18.7617370
HR 2270 EU;FRANIĆ FARM j.d.o.o.;Cerje Tužno 12A;Varaždin;42000;46.3079645;16.3378198
HR 2275 EU;LEDO plus d.o.o.;Industrijska cesta 40;Sesvete;10360;45.8200451;16.1096697
HR 228 EU;VINDON d.o.o.;Lučka ulica 4;Slavonski Brod;35000;45.1494358;18.0458049
HR 2281 EU;RIBARSKA ZADRUGA PORAT;Milutina Barača 19;Rijeka;51000;45.3353179;14.4095022
HR 2285 EU;VIOLETA d.o.o. za proizvodnju, trgovinu i usluge;Permani 26/b;Jurdani;51213;45.3851188;14.3155500
HR 229 EU;MILINA - obrt za proizvodnju i preradu mesa i trgovinu, vl. Željan Milina;Smokvica 60/a, otok Korčula;Smokvica;20272;42.9282998;16.8938571
=======
HR 2266 EU;OPG Damir Lenić;Vladimira Nazora 97;Bošnjaci;32275;45.0459088;18.7626677
HR 2270 EU;FRANIĆ FARM j.d.o.o.;Cerje Tužno 12A;Varaždin;42000;46.3079645;16.3378198
HR 2275 EU;LEDO plus d.o.o.;Industrijska cesta 40;Sesvete;10360;45.8200451;16.1096697
HR 2281 EU;RIBARSKA ZADRUGA PORAT;Milutina Barača 19;Rijeka;51000;45.3353179;14.4095022
HR 2285 EU;VIOLETA d.o.o. za proizvodnju, trgovinu i usluge;Permani 26/b;Jurdani;51213;45.3851188;14.3155500
>>>>>>> main
HR 2291 EU;DRAGUTIN KEČ;Kajgana 58;Garešnica;43280;45.5876968;16.9318289
HR 2292 EU;RIBARSKA ZADRUGA ISTRA;Mate Vlašića 24/b;Poreč;52440;45.2306988;13.6196551
HR 2295 EU;Hrvatske šume d.o.o. - Uprava šuma podružnica Senj;Anići b.b.;Krasno;53274;44.8222949;15.0498482
HR 2302 EU;Mesnica DAMJAN, vl. Damjan Devčić;Ante Mandića 7, Zamet;Rijeka;51000;45.3481293;14.3908726
HR 2306 EU;BUŽIĆ, mesarski obrt, vl. Robert Bužić;Varaždinska 210, Gornji Kućan;Varaždin;42000;46.2813775;16.3737863
HR 2322 EU;SAMITA - KOMERC d.o.o.;1. maja 35;Reka;48305;45.3315158;14.4332601
HR 2326 EU;ANCORA COMMERCE d.o.o.;Dugopoljska 27.;Dugopolje;21204;43.5925031;16.5832077
HR 2333 EU;OPG DARKO ĐURAN;Slakovec 12/a;Nedelišće;40305;46.3761160;16.3859138
HR 2334 EU;BROSS TRADE d.o.o.;Komolac, Podgaj b.b.;Dubrovnik;20000;42.6491029;18.0939501
HR 2336 EU;LAGERMAX LOGISTICS CROATIA d.o.o.;Kukuljanovo 410;Škrljevo;51223;45.3219629;14.5328973
HR 2346 EU;POMPEJA d.o.o.;Tompojevci, Vladimira Nazora 26;Čakovci;32238;45.2360065;19.0583951
HR 2351 EU;VODOPIVEC ISTRA d.o.o.;Ulica Ivana Batalića 5;Raša;52223;45.0805940;14.0838455
<<<<<<< HEAD
HR 2358 EU;VINDIJA d.o.o.;Mostarska 14E;Metković;20350;43.0553971;17.6574597
HR 2360 EU;Poljoprivredni obrt BURETIĆ, vl. Josip Buretić;Boljunsko polje, Mandići  8;Boljun;52434;45.3019621;14.1213576
HR 2364 EU;RIVA ZARA d.o.o.;Crno b.b., Crno;Zadar;23000;44.1168594;15.2353257
HR 237 EU;EKSTRAMES obrt za trgovinu i proizvodnju, vl. Goran Bukvić;Mirka Bogovića 49;Samobor;10430;45.8220766;15.6995145
=======
HR 2358 EU;VINDIJA d.o.o.;Mostarska 14E;Metković;20350;43.0554975;17.6575014
HR 2360 EU;Poljoprivredni obrt BURETIĆ, vl. Josip Buretić;Boljunsko polje, Mandići  8;Boljun;52434;45.3019621;14.1213576
HR 2364 EU;RIVA ZARA d.o.o.;Crno b.b., Crno;Zadar;23000;44.1168594;15.2353257
>>>>>>> main
HR 2377 EU;MIRO TARTUFI d.o.o.;Kanal 27;Motovun;52424;45.3367132;13.8282805
HR 2378 EU;TRGOVINA ORAO d.o.o.;Budak k.br. 93, Budak;Stankovci;23422;43.9068968;15.6948348
HR 2379 EU;HRVATSKE ŠUME d.o.o., Uprava šuma Podružnica Sisak, Šumarija Sunja;Lovište III/28, Šaš b.b.;Šaš;44222;45.2726266;16.6792260
HR 2384 EU;HRVATSKE ŠUME d.o.o.  - Šumarija Đurđevac;Pavleka Miškine 32;Đurđevac;48350;46.0480351;17.0549340
<<<<<<< HEAD
HR 24 EU;INTERCOMMERCE Export-Import d.o.o.;Ulica Ernesta Miloša 20;Umag;52470;45.4349410;13.5253626
=======
>>>>>>> main
HR 2420 EU;Dr. ŠKOBIĆ d.o.o.;Gornji kraj 11;Samobor;10430;45.7996954;15.6833230
HR 2420-1 EU;NICRO PROMAX j.d.o.o.;Gornji kraj 11;Samobor;10430;45.7996954;15.6833230
HR 2431 EU;AMDRA d.o.o.;Prigorska 18;Soblinec;10360;45.8681373;16.1560555
HR 2435 EU;Obrt za obradu, preradu i trgovinu mesom MESNICA ŠAFAR;Kamenita 25;Delnice;51300;45.3994671;14.8002552
HR 2440 EU;PORCUS d.o.o.;Gligići-Brkići 84;Konjevrate;22221;43.7825728;16.0197462
HR 2441 EU;MOVIMENTO d.o.o.;Sveti Lovreč, Vošteni br. 19.;Sveti Lovreč;52448;45.1756778;13.7437075
HR 2443 EU;PG BISTROVIĆ d.o.o.;Gornje Vratno, Varaždinska 94b;Varaždin;42208;46.3079645;16.3378198
HR 2445 EU;JOSIP JOB;Kralja Stjepana Držislava 51;Josipovac;31221;45.5732768;18.5861294
<<<<<<< HEAD
HR 245 EU;MANJATIVA d.o.o.;Ruđera Boškovića 25;Split;21000;43.5095439;16.4673295
HR 2461 EU;PRESEČKI mesnica, trgovina, ugostiteljstvo i prijevoz, vl. Mario Presečki;Zagrebačka cesta 41;Krapina;49000;46.1573777;15.8760846
HR 2469 EU;OPG BRESTOVAC, vl. Jelena Brestovac;sveti Marka 124;Trnjani;35211;45.1909460;18.1340880
HR 247 EU;KLAROM DELICIJE d.o.o.;Samoborska 178;Zagreb;10000;45.8117598;15.8953213
=======
HR 2461 EU;PRESEČKI mesnica, trgovina, ugostiteljstvo i prijevoz, vl. Mario Presečki;Zagrebačka cesta 41;Krapina;49000;46.1573777;15.8760846
HR 2469 EU;OPG BRESTOVAC, vl. Jelena Brestovac;sveti Marka 124;Trnjani;35211;45.1909460;18.1340880
>>>>>>> main
HR 2470 EU;OPG BRESTOVAC, vl. Jelena Brestovac;sveti Marka 124;Trnjani;35211;45.1909460;18.1340880
HR 2472 EU;ŽITO d.o.o.;Mali Rastovčić 6;Vuka;31403;45.4307881;18.5167078
HR 2473 EU;LOVRO BRKIĆ - pakirni centar za jaja;Kruševica, J.J. Strossmayera 42/a;Slavonski Šamac;35220;45.0665916;18.4877434
HR 2482 EU;MEKIŠ MORENO;Mekiši 10;Vižinada;52447;45.3098396;13.7508571
HR 2490 EU;ULTRA FOOD d.o.o.;Brodarci 2/J;Karlovac;47000;45.4892522;15.5486303
HR 2495 EU;ALBI d.o.o.;Poduzetnička zona 10;Galižana;52216;44.9328531;13.8698215
<<<<<<< HEAD
HR 25 EU;KLAONICA br. 25 SITNE I KRUPNE STOKE, vl. Drago Dropučić;Črečan 10;sveti Ivan Zelina;10380;45.9753340;16.2628584
=======
>>>>>>> main
HR 2502 EU;TOTAL FISH d.o.o.;Mali Brgud 33;Jurdani;51213;45.3851188;14.3155500
HR 2504 EU;FARMA VELI BRGUD;Veli Brgud 127;Jurdani;51213;45.3851188;14.3155500
HR 2505 EU;PODRAVKA d.d.;Bana Josipa Jelačića 16;Dugopolje;21204;43.5911073;16.5832436
HR 2507 EU;HEDERA d.o.o.;Kamen, Ulica 4. Gardijske brigade 35;Split;21000;43.5116383;16.4399659
<<<<<<< HEAD
HR 251 EU;Inout d.o.o.;Osječka 47;Opatija;51410;45.3349238;14.3067834
HR 251-1 EU;HIA PROMET d.o.o.;Osječka 47;Opatija;51410;45.3349238;14.3067834
=======
>>>>>>> main
HR 2514 EU;NIKŠA GALOV - pakirni centar za jaja;Badžula b.b.;Mlinište;20353;42.9921697;17.6164205
HR 2517 EU;Antun Užarević;J. J. Strossmayera 35;Štitar;32274;45.0937485;18.6381438
HR 2521 EU;MLJEKARA BOSNIĆ d.o.o.;Dvorine 12;Studenci;21265;43.5290181;17.0294192
HR 2525 EU;PAŠKA SIRANA d.d.;Zadarska 5;Pag;23250;44.4410432;15.0629830
HR 2538 EU;Anita Pintar;Narodnog oslobođenja 23;Čabar;51306;45.5963967;14.6461505
HR 2539 EU;IZVOR, obrt za proizvodnju konzumnih jaja, povrtlarstvo i trgovinu, vl. Berislav Parat;Blace 11;Rokovci;32271;45.2308907;18.7436858
HR 2540 EU;Poljoprivredno gospodarstvo GALOVIĆ,vl. Mijo Galović;Stjepana Radića 42;Slavonski Kobaš;35255;45.1017616;17.7402195
HR 2549 EU;PREMIS d.o.o.;Put Volicije 8;Makarska;21300;43.2939756;17.0202420
HR 2550 EU;OPG Hrvoje Brkić;K. Tomislava 316;Bizovac;31222;45.5924791;18.4593120
HR 2552 EU;Peradarski poljorivredni obrt ŠTRPED;Štrpad 1/5;Buzet;52420;45.4078767;13.9655905
HR 2560 EU;KRAS MESNA INDUSTRIJA d.o.o.;Marinići 195;Viškovo;51216;45.3617549;14.3934207
HR 2560-1 EU;Delamaris Zagreb d.o.o.;Marinići b.b.;Viškovo;51216;45.3780491;14.3858441
HR 2566 EU;REČINA trgovački obrt, vl. Zdene Smodlaka;Stinice 26;Split;21000;43.5261330;16.4492498
HR 2568 EU;OPG Andrija Čuha;M. Gupca 98;Soljani;32255;44.9507349;18.9729128
HR 2571 EU;RIBARSKA ZADRUGA ISTRA;Mate Vlašića 24b;Poreč;52440;45.2306988;13.6196551
HR 2572 EU;STANIĆ d.o.o.;Kerestinečka cesta 57/A;Sveta Nedelja;10431;45.7708209;15.8085167
HR 2572-1 EU;BONAFARM ADRIATIC d.o.o.;Kerestinečka cesta 57/A;Sveta Nedelja;10431;45.7708209;15.8085167
HR 2572-2 EU;LAVATEH d.o.o.;Kerestinečka cesta 57/A;Sveta Nedelja;10431;45.7708209;15.8085167
HR 2574 EU;SEASHELL d.o.o.;Uvala Plavalište;Šibenik;22000;43.7340647;15.8944767
HR 2576 EU;Ivica Bošnjaković;M. Gupca 16;Piškorevci;31417;45.2554528;18.3990360
HR 2577 EU;Hrvoje Matijević;Košut Lajoša 10;Suza;31308;45.7845354;18.7722007
<<<<<<< HEAD
HR 258 EU;Mesarski obrt COLNAR, vl. Ivo Colnar;Podkilavačka 14, Dražice;Dražice;51218;45.3889312;14.4659426
=======
>>>>>>> main
HR 2580 EU;Nedeljka Damjanović;J. J. Strossmayera 58;Štitar;32274;45.0937485;18.6381438
HR 2582 EU;PERUTNINA PTUJ - PIPO d.o.o.;Vučak 26;Zagreb;10090;45.8104077;15.8525213
HR 2584 EU;KUDELIĆ d.o.o.;Bedenica b.b.;Bedenica;10381;46.0326343;16.2432436
HR 2585 EU;SIRANA GLIGORA d.o.o.;Figurica 22/A;Kolan;23251;44.4938821;14.9612564
HR 2588 EU;Marija Kirić;Trnovec 62;Macinec;40306;46.3902262;16.3240248
HR 2597 EU;LIMBORA d.o.o.;Tkon b.b.;Tkon;23212;43.9208225;15.4196949
HR 2600 EU;ZDENKA - mliječni proizvodi d.o.o.;Trg kralja Tomislava 15;Veliki Zdenci;43293;45.6744269;17.1081283
HR 2610 EU;CVITANOVIĆ d.o.o.;Žedno-Drage 35;Supetar;21400;43.3825826;16.5532114
HR 2618 EU;ALCA ZAGREB d.o.o.;Sveta Helena 162;Donja Zelina;10382;45.9113619;16.2323638
HR 2619 EU;KONZUM plus d.o.o.;Škrljevo, Kukuljanovo b.b.;Rijeka;51000;45.3267976;14.4422080
HR 2624 EU;KALNIČANKA PROIZVODI d.o.o.;Potok Kalnički 115;Kalnik;48269;46.1278483;16.4642668
HR 2627 EU;AZRRI - AGENCIJA ZA RURALNI RAZVOJ ISTRE d.o.o.;Ulica prof. Tugomila Ujčića 1;Pazin;52000;45.2406853;13.9414127
HR 2628 EU;PERADARSKI OBRT OBLIĆ KRK;Bok od Brozića b.b., Vrh;Krk;51500;45.0269806;14.5752862
<<<<<<< HEAD
HR 263 EU;BEBRINKA d.o.o.;Donja Bebrina b.b.;Ruščica;35208;45.1470953;18.0797115
=======
>>>>>>> main
HR 2636 EU;BARIĆ TOURS d.o.o.;Malin 42;Mali Lošinj;51550;44.5365510;14.4670715
HR 2637 EU;KONZUM plus d.o.o.;Dubrovačka 4;Dugopolje;21204;43.5914569;16.5654803
HR 2638 EU;LEDO plus d.o.o.;Dubrovačka 4;Dugopolje;21205;43.5914569;16.5654803
HR 2639 EU;Mesarsko - trgovački obrt MRKI, vl.Miran Pelivan;Pakovo Selo b.b.;Drniš;22320;43.8602746;16.1557855
HR 2640 EU;MORSKE DELICIJE d.o.o.;Ledinići 2, Sparagovići;Ston;20230;42.8277507;17.6851719
HR 2646 EU;ROTO DINAMIC d.o.o.;Kovinska 1;Zagreb;10000;45.8055291;15.8573904
HR 2657 EU;VODOPIVEC ISTRA d.o.o.;Crni 14;Raša;52223;45.0805940;14.0838455
HR 2659 EU;RIBA - MLJET d.o.o.;Sobra, Babino Polje;Babino Polje;20225;42.7352783;17.5505231
HR 2660 EU;Lovno gospodarstvo MOSLAVINA plus d.o.o.;Gornja Garešnica 66;Gornja Garešnica;43280;45.6549744;16.8130529
HR 2667 EU;PODRAVKA d.d.;Biškupečka 60;Varaždin;42000;46.2923335;16.3367497
HR 2668 EU;CONEX TRADE d.o.o.;Čaporice 144;Trilj;21240;43.6189241;16.7210601
HR 2674 EU;MINI KLAONICA PETROVIĆ, vl. Stjepan Petrović;Petrovići 11, Pakovo Selo;Drniš;22320;43.8602746;16.1557855
HR 2675 EU;ADRIATIC SHELL j.d.o.o.;Ulica prva 13a;Ljubački stanovi;23248;44.2432533;15.3017187
HR 2679 EU;VINDIJA d.o.o.;Jalkovečka 36;Varaždin;42000;46.2953943;16.3262222
HR 2681 EU;APIMEL d.o.o.;Kralja Tomislava 1;Bizovac;31222;45.5945772;18.4662329
HR 2686 EU;Trgovački obrt KOJUNDŽIĆ, vl. Andrija Kojundžić;Galdovačka 141;Sisak;44000;45.4775198;16.4081596
HR 2687 EU;ACG Europe d.o.o.;Frankopanska 79;Ludbreg;42230;46.2536943;16.6154841
HR 2691 EU;KTC d.o.o.;Prnjavor Lepavinski b.b.;Sokolovac;48306;46.1065397;16.7092601
HR 2692 EU;NATURA d.o.o.;Srnegla 21;Buzet;52420;45.4078767;13.9655905
HR 2693 EU;PETRIČEVIĆ d.o.o.;Dišinac b.b., kč. Br. 1719;Stari Mikanovci;32284;45.2702600;18.5486923
<<<<<<< HEAD
HR 270 EU;STUDENAC d.o.o.;Bana Jelačića 17;Dugopolje;21204;43.5894808;16.5813366
=======
>>>>>>> main
HR 2703 EU;KLARA MARIĆ d.o.o.;J. Dobrile 2A;Kanfanar;52352;45.1228399;13.8384985
HR 2704 EU;CARNIS j.d.o.o.;Veli Brgud 156;Jurdani;51213;45.3851188;14.3155500
HR 2708 EU;OPG MARIJAN KUNDAKČIĆ;Graberje, I. Šveara14;Sesvete;34312;45.3411065;17.8313934
HR 2712 EU;MF ŠKOLJKA, vl. Mato Franušić;Luka 38;Ston;20230;42.8277507;17.6851719
HR 2713 EU;ELTOM d.o.o.;Varaždinska ulica III odvojak 5;Varaždin;42000;46.2886164;16.3206407
HR 2718 EU;Ribarstvo i maslinarstvo BOŽOVIĆ, vl. Jocko Božović;Brijesta bb;Janjina;20246;42.9251480;17.4288843
HR 2720 EU;PONTE LUKA d.o.o.;Luka b.b.;Ston;20230;42.8277507;17.6851719
HR 2721 EU;ATIF ŠAHDANOVIĆ;Zgrada 4, Čepić Dobro;Kršan;52232;45.1754015;14.1379004
HR 2735 EU;SPUDIĆ, obrt za poljoprivredu i gospodarstvo, vl. Goran Spudić;Leskovac Barilovički 34;Barilović;47252;45.3806407;15.5466794
HR 2736 EU;BEL. M. I. d.o.o.;Marija na Krasu 49;Umag;52470;45.4323587;13.5224098
HR 2738 EU;EURO - ALFA d.o.o.;Put Vrbovnika b.b.;Stobreč;21311;43.5024266;16.5224011
HR 2740 EU;ROCA d.o.o.;Radna zona Velim, k. č. br 1/4;Stankovci;23422;43.9068968;15.6948348
HR 2742 EU;ALENTRADE d.o.o.;Varaždinska 27;Nedeljanec;42205;46.2876374;16.2819028
HR 2743 EU;MILENA D.O.O.;Bačva 15;Višnjan;52463;45.2523428;13.7149991
HR 2752 EU;ORADA ADRIATIC d.o.o.;Volnik 8;Cres;51557;44.9603460;14.4079371
HR 2753 EU;LIDL HRVATSKA d.o.o.;Industrijska cesta 7;Perušić;53202;44.6500165;15.3832595
HR 2768 EU;MLINAR pekarska industrija d.o.o.;M. Divalta 324;Osijek;31000;45.5548793;18.6953685
HR 2776 EU;MIAGRO d.o.o.;Ribnjak, S. Radića 4;Našička Breznica;31225;45.5342460;18.1976009
HR 2793 EU;BRČIĆ d.o.o.;Kolodvorska 168;Vrbanja;32254;44.9779167;18.9042593
HR 2799 EU;PTO DAMI, vl. Damjan Dujmenović;J. Cobovića 43a, Deanovec;Graberje Ivaničko;10313;45.7101594;16.4712034
HR 2808 EU;PAN-PEK d.o.o.;Planinska cesta 2c;Zagreb;10000;45.8130967;15.9772795
HR 2814 EU;CITY KEBAP trgovački obrt;Katarine Zrinske 22;Petrinja;44250;45.4357241;16.2753970
HR 2816 EU;APIPHARMA d.o.o;Papučka 6;Našice;31500;45.5053686;18.0890273
<<<<<<< HEAD
HR 2831 EU;C.A.K. d.o.o.;Kukuljanovo 453;Kukuljanovo;51227;45.3404090;14.5051655
HR 2832 EU;NOVAK DMD;Novoselci 7;Pleternica;34310;45.2862978;17.8015103
HR 2837 EU;POLJOPRIVREDNO GOSPODARSTVO FAJMAN, vl. Đani Fajman;Letaj 21;Kršan;52232;45.1754015;14.1379004
HR 2838 EU;LUKAČ d.o.o.;Caginec, Ulica jela 24;Ivanić Grad;10310;45.7056756;16.3920092
HR 285 EU;Obrt KUDE, vl. Ante Galić;Put Steljka 1;Trilj;21240;43.6159898;16.7242534
HR 2855 EU;PERŠIĆ obrt za poljoprivredu i stočarstvo, vl. Alen Peršić;Premanturska 157;Pula;52100;44.8519146;13.8663836
HR 2857 EU;MLINAR pekarska industrija d.o.o.;Ulica gospodarske zone 20;Antunovac;31216;45.4873577;18.6733499
HR 286 EU;IVAN BOŽIĆ d.o.o.;Prisoje 2;Dicmo;21232;43.6351478;16.5957094
HR 2863 EU;AMBIENT PARK d.o.o.;Dominićev odvojak 6;Sesvete;10361;45.8331797;16.1718341
HR 2864 EU;MLINAR pekarska industrija d.o.o.;Radnička cesta 228c;Zagreb;10000;45.7767422;16.0553473
HR 287 EU;RALU LOGISTIKA d.d.;Vranjički put 8;Vranjic;21211;43.5292906;16.4798289
=======
HR 2831 EU;C.A.K. d.o.o.;Kukuljanovo 453;Kukuljanovo;51227;45.3271600;14.5087019
HR 2832 EU;NOVAK DMD;Novoselci 7;Pleternica;34310;45.2862978;17.8015103
HR 2837 EU;POLJOPRIVREDNO GOSPODARSTVO FAJMAN, vl. Đani Fajman;Letaj 21;Kršan;52232;45.1754015;14.1379004
HR 2838 EU;LUKAČ d.o.o.;Caginec, Ulica jela 24;Ivanić Grad;10310;45.7056756;16.3920092
HR 2855 EU;PERŠIĆ obrt za poljoprivredu i stočarstvo, vl. Alen Peršić;Premanturska 157;Pula;52100;44.8519146;13.8663836
HR 2857 EU;MLINAR pekarska industrija d.o.o.;Ulica gospodarske zone 20;Antunovac;31216;45.4873577;18.6733499
HR 2863 EU;AMBIENT PARK d.o.o.;Dominićev odvojak 6;Sesvete;10361;45.8331797;16.1718341
HR 2864 EU;MLINAR pekarska industrija d.o.o.;Radnička cesta 228c;Zagreb;10000;45.7767422;16.0553473
>>>>>>> main
HR 2872 EU;TOMMY d.o.o.;Matoševa 29;Solin;21210;43.5305683;16.4871242
HR 2877 EU;MVM KOMAR d.o.o.;Matije Gupca 31;Bedekovčina;49221;46.0446414;16.0040381
HR 2882 EU;OPG NADA ALDUK;Šibenske brigade 93a;Šibenik;22000;43.7433149;15.8907297
HR 2896 EU;PRŠUT VOŠTANE d.o.o.;Čaporice 145;Trilj;21240;43.6189241;16.7210601
<<<<<<< HEAD
HR 29 EU;Mesarsko - kobasičarski obrt i ugostiteljstvo ZVONKO ŠANJEK i SINOVI, vl. Ronald Šanjek;Optujska 83;Varaždin;42000;46.3128024;16.3301488
HR 290 EU;CROMARIS d.d.;Gaženica 4/b;Zadar;23000;44.0942176;15.2668245
HR 2906 EU;DELICIJE MAROVIĆ d.o.o.;Turjaci 351;Sinj;21230;43.7054647;16.6337535
HR 2909 EU;ZIGANTE  TARTUFI d.o.o.;Kaldanija 27a;Buje;52460;45.4083871;13.6587529
HR 291 EU;HLAD usluge d.o.o.;Industrijska zona Bjeliš, Ferde Filipović 59f;Slavonski Brod;35000;45.1665803;18.0121385
HR 2911 EU;NERINO VISINTIN;Druškovići 8;Brtonigla;52474;45.3785169;13.6259411
HR 2915 EU;PESCAMAR d.o.o.;Stancija Caligari 7;Poreč;52440;45.2271961;13.5957333
HR 292 EU;MI BRAĆA PIVAC d.o.o.;Gavanova b.b.;Šibenik;22000;43.7340647;15.8944767
=======
HR 2906 EU;DELICIJE MAROVIĆ d.o.o.;Turjaci 351;Sinj;21230;43.7054647;16.6337535
HR 2909 EU;ZIGANTE  TARTUFI d.o.o.;Kaldanija 27a;Buje;52460;45.4083871;13.6587529
HR 2911 EU;NERINO VISINTIN;Druškovići 8;Brtonigla;52474;45.3785169;13.6259411
HR 2915 EU;PESCAMAR d.o.o.;Stancija Caligari 7;Poreč;52440;45.2271961;13.5957333
>>>>>>> main
HR 2921 EU;TERI-TRGOVINA d.o.o.;Stancija Vinjeri 27b;Novigrad;52466;45.3159178;13.5630277
HR 2924 EU;RIBARSKA ZADRUGA OMEGA 3;Poslovna zona Šopot;Benkovac;23420;44.0333553;15.6128513
HR 2928 EU;Trgovačko mesarski obrt MESNICA ČUČKOVIĆ, suvlasnici Dejan Čučković i Danijel Čučković;Lučinići 41, Marinići;Viškovo;51216;45.3634639;14.3954342
HR 2929 EU;KLAONICA CESARICA BR. 802, vl. Robert Čačić;Bana Josipa Jelačića 9;Gospić;53000;44.5467382;15.3681309
<<<<<<< HEAD
HR 293 EU;LUCIJA Obrt za uzgoj peradi i ugostiteljstvo;Valtursko polje 191/a, Valtura;Pula;52100;44.8702281;13.8455311
=======
>>>>>>> main
HR 2933 EU;RIGETA d.o.o.;Žitnjak - Bogdani 66;Zagreb;10000;45.7877754;16.0608080
HR 2938 EU;MARIKOMERC d.o.o.;Sustjepanska obala 34;Sustjepan;20236;42.6706906;18.0985001
HR 2945 EU;POLJOPRIVREDNO-BRANITELJSKA ZADRUGA SVILAJA;Maovice b.b.;Vrlika;21236;43.9096687;16.3977809
HR 2946 EU;PERT d.o.o.;Turkovo 1h;Rijeka;51000;45.3565751;14.3997565
HR 2949 EU;PIP d.o.o.;Poduzetnička zona b.b.;Pisarovina;10451;45.5854674;15.8600170
HR 2958 EU;VINDIJA d.o.o.;Stjepana Radića 10;Krk;51500;45.0337568;14.5706303
HR 2960 EU;CONEX TRADE d.o.o.;Čaporice 146;Trilj;21240;43.6189241;16.7210601
HR 2961 EU;ARBACOMMERCE d.o.o.;Dubrova 312;Labin;52220;45.0913954;14.1236014
HR 2965 EU;SPAR HRVATSKA d.o.o.;Ulica SR Njemačke 3;Zagreb;10000;45.8130967;15.9772795
HR 2966 EU;MARIKOMERC d.o.o.;Poslovna zona Grabi 54;Poličnik;23241;44.1743038;15.3784633
HR 2969 EU;LUNETA d.o.o.;Dravska b.b.;Sveti Đurđ;42233;46.2812323;16.6055042
HR 2971 EU;OLASAGASTI d.o.o.;Turjaci 379;Sinj;21230;43.7054647;16.6337535
<<<<<<< HEAD
HR 298 EU;Mesarsko-kobasičarski obrt, vlasnik Zdravko Horvatić;Vida Ročića 129;Zagreb;10000;45.8766524;16.0158792
HR 2985 EU;MESTINJAK d.o.o.;Mestinjak b.b.;Vrbnik;51516;45.0757279;14.6744188
HR 2989 EU;JADRAN TUNA d.o.o.;Vukovarska 86;Biograd na moru;23210;43.9516532;15.4521029
HR 299 EU;PODRAVKA d.d.;Danica 12;Koprivnica;48000;46.1889634;16.8396435
HR 2997 EU;JANKOVIĆ SLAVONSKI OKUSI d.o.o.;Firov kraj 48;Bukovlje;35209;45.1861960;18.0614087
HR 2999 EU;PUREX d.o.o.;Hrvace 556;Hrvace;21233;43.7693623;16.6148690
HR 3 EU;MI BRAĆA PIVAC d.o.o.;Selce 33;Karlovac;47000;45.5085430;15.5518388
=======
HR 2985 EU;MESTINJAK d.o.o.;Mestinjak b.b.;Vrbnik;51516;45.0757279;14.6744188
HR 2989 EU;JADRAN TUNA d.o.o.;Vukovarska 86;Biograd na moru;23210;43.9516532;15.4521029
HR 2997 EU;JANKOVIĆ SLAVONSKI OKUSI d.o.o.;Firov kraj 48;Bukovlje;35209;45.1861960;18.0614087
HR 2999 EU;PUREX d.o.o.;Hrvace 556;Hrvace;21233;43.7693623;16.6148690
>>>>>>> main
HR 3000 EU;DIANA, trgovački obrt, vl. Diana Perajica;Kod škole 3, Gornje Vinovo;Unešić;22323;43.7414935;16.1840187
HR 3002 EU;VLADO FERBEŽAR;Ruđera Boškovića 7;Otok;32252;45.1437279;18.8948231
HR 3003 EU;OPG BORIS ORLIĆ;Klarići 83;Svetvinčenat;52342;45.0096549;13.8837612
HR 3007 EU;SMOJVER d.o.o.;Avelina Turka 11;Rijeka;51000;45.3460747;14.3790414
HR 3012 EU;STJEPAN VRANČIĆ;Štuk 4;Podturen;40317;46.4618211;16.5475303
HR 3013 EU;ZVONIMIR MARIN;Trbounje, Gornji Marini 18;Drniš;22320;43.8602746;16.1557855
HR 3014 EU;IVAN KADIĆ;Matije Gupca 92;Gundinci;35222;45.1546537;18.4893493
HR 3015 EU;Poljoprivredno gospodarstvo ADŽIJEVIĆ d.o.o.;Tuhovec 47;Varaždinske Toplice;42223;46.2217516;16.4495963
HR 3016 EU;LEDO plus d.o.o.;Tome Strižića 8;Rijeka;51000;45.3260080;14.4747835
HR 3019 EU;ADRIATICON d.o.o.;Prisike II 15;Gizdavac;21247;43.6638318;16.4969108
HR 3023 EU;MESNA INDUSTRIJA RAVLIĆ d.o.o.;Provala 1;Petrijevci;31208;45.5962794;18.5645497
<<<<<<< HEAD
HR 303 EU;ŠIKIĆ j.d.o.o.;Butina 6, Betina;Murter;22243;43.8202010;15.5902905
=======
>>>>>>> main
HR 3031 EU;OPG FRANJUL, vl. Ljubica Franjul;Dolenci 229a;Sveti Petar u Šumi;52404;45.1816824;13.8641100
HR 3033 EU;ŽUMBERAČKI SINOVI d.o.o.;Šepečka 18;Trebovec;10310;45.7126697;16.3146667
HR 3043 EU;TERI-TRGOVINA d.o.o.;Vršanska 25;Krk;51500;45.0325085;14.5690814
HR 3050 EU;SARDINA d.o.o.;Ratac 1;Postira;21410;43.3754923;16.6279306
HR 3052 EU;TERI-TRGOVINA d.o.o.;Šorići 26;Kanfanar;52352;45.1228399;13.8384985
HR 3053 EU;MRVICA, obrt za ugostiteljstvo i trgovinu, vlasnik Damir Hidić;Jordanovac 48;Zagreb;10000;45.8268491;15.9975364
HR 3057 EU;ANA DELIĆ;Gredice 54;Županja;32270;45.0810134;18.7049598
HR 3061 EU;MESARSKO KOBASIČARSKI OBRT, vl. Ibrahim Nukić;Miroslava Krleže 30;Gunja;32260;44.8872373;18.8204374
HR 3070 EU;PUĐA d.o.o.;Čaporice 133;Trilj;21240;43.6189241;16.7210601
HR 3081 EU;JADRANKA TRGOVINA d.o.o.;Dražica 1;Mali Lošinj;51550;44.5261346;14.4718618
HR 3085 EU;ALEN KLAJ;Fiorini 24;Brtonigla;52474;45.3785169;13.6259411
HR 3088 EU;CINCIN TRGET d.o.o.;Raški zaljev;Trget;52224;45.0207972;14.0567828
HR 3091 EU;KEVRIĆ MESNICA;Trg žrtava domovinskog rata 16;Gunja;32260;44.8877114;18.8263330
HR 3094 EU;S.I.C. d.o.o.;Milanezi 39;Višnjan;52463;45.2760178;13.7188658
HR 3095 EU;ŠKAMP d.o.o.;Creska 12;Pula;52100;44.8900077;13.8480563
HR 3096 EU;MORSKI RIBOLOV -Vladimir Bašić;Rovinjska 1;Umag;52470;45.4405084;13.5229342
HR 3097 EU;POLJODAR TIM d.o.o.;Blagorodovac, Stjepana Radića 26;Garešnica;43280;45.5876968;16.9318289
HR 3099 EU;LOVSKI d.o.o.;Franje Vidovića 59d;Čazma;43240;45.7483397;16.6097918
HR 3100 EU;PRŠUTANA DELICIJE ARIA d.o.o.;Kod Kapele 18;Ružić;22322;43.8253051;16.2602450
HR 3101 EU;RADAUER CRIJEVA d.o.o.;Trg sveti Jurja 11;Duga Resa;47250;45.4478475;15.4976858
HR 3101-1 EU;RIVALIS d.o.o.;Trg sveti Jurja 11;Duga Resa;47250;45.4478475;15.4976858
HR 3103 EU;DRNIŠKA PRŠUTANA d.o.o.;Ruđera Boškovića 23 - 25;Split;21000;43.5072264;16.4658776
HR 3104 EU;KRIŠKOVIĆ d.o.o.;Josipa Kozarca 45;Belišće;31551;45.6795997;18.4191533
HR 3107 EU;OSTRIGA zadruga za ribarstvo i trgovinu;Ungarija 39c;Umag;52470;45.4756997;13.5105309
HR 3113 EU;BUTIĆ PRŠUTI d.o.o.;Donji Zemunik ulica I. 17/4;Zemunik Donji;23222;44.1050024;15.3794791
HR 3118 EU;MESNICA MARKRT ŽUŽIĆ KRK;Bok od Brozića 40, Vrh;Krk;51500;45.0269806;14.5752862
HR 3128 EU;VELT d.o.o.;A.B. Šimića 4;Drniš;22320;43.8595561;16.1622812
HR 3129 EU;CASEUS d.o.o.;Peščenica 19;Ogulin;47300;45.2519788;15.2344989
HR 3131 EU;SLAVKO MIKULIĆ;A. Šenoe 12;Staro Petrovo Selo;35420;45.1993654;17.5089708
HR 3132 EU;Danijel Erman;Matka Laginje 16;Žminj;52341;45.1432689;13.9024772
HR 3136 EU;ANPEK d.o.o.;Radnička 9d;Bestovje;10437;45.8079452;15.8146051
HR 3137 EU;ŠKALEC PROMET d.o.o.;Družilovec 116;Veliko Trgovišće;49214;46.0025312;15.8448908
HR 3138 EU;ADRIA SNACK COMPANY d.o.o.;Pepe Bukača 11;Hercegovac;43284;45.6519511;17.0085044
HR 3142 EU;MARIJAN RUPČIĆ;Matice hrvatske 32;Vukovar;32000;45.3596304;18.9697828
HR 3148 EU;RIBA DRAŽIN j.d.o.o.;Kaštel Kambelovac, Biskupa F. Franića 78;Split;21000;43.5116383;16.4399659
HR 3150 EU;ORADA d.o.o.;Braće Fabijanić 4;Pag;23250;44.4437608;15.0545217
HR 3153 EU;RIBNJACI KUPA d.o.o.;Mrzljaki 108;Draganić;47201;45.5628677;15.6276961
HR 3155 EU;S.I.C. d.o.o.;Milanezi 39;Višnjan;52463;45.2760178;13.7188658
HR 3156 EU;FRIŠKINA d.o.o.;Listešići 1;Klis;21231;43.5604555;16.5346635
HR 3158 EU;FRANCK d.d.;Vodovodna 20;Zagreb;10000;45.8107344;15.9477666
HR 3166 EU;JADRANSKA VRATA d.d.;Andrije Kačića Miošića b.b.;Rijeka;51000;45.3267976;14.4422080
HR 3169 EU;ATLAS LOGISTIKA d.o.o.;Gospodarska ulica 2A;Sveta Nedelja;10431;45.8041669;15.7719326
HR 3173 EU;EUROPAN d.o.o.;IK Murvica, Murvica;Zadar;23000;44.1356708;15.3126675
HR 3175 EU;BATISTA d.o.o.;Kosi 25;Viškovo;51216;45.3918821;14.3780490
HR 3176 EU;DUKAT d.d.;Ante Starčevića 258;Đakovo;31400;45.3307191;18.3956788
HR 318 EU;A & B d.o.o.;Centener 26;Rovinj;52210;45.0725197;13.6466996
HR 3182 EU;MARIKOMERC d.o.o.;Milutina Barača 19;Rijeka;51000;45.3353179;14.4095022
HR 3183 EU;Obrt za uzgoj goveda i proizvodnju mlijeka ORBANIĆ;Kašćergani 24;Pazin;52000;45.2391995;13.9363313
HR 319 EU;AGROLAGUNA d.d.;Stancija Špin 4;Tar;52465;45.3161491;13.6300669
HR 3199 EU;DUPIN d.o.o.;Samoborska cesta 85;Zagreb;10000;45.8111640;15.8834805
HR 3213 EU;Čedo Malešević;Svetog Marka 166;Trnjani;35211;45.1876812;18.1411302
HR 3216 EU;Zvonko Šincek;Varaždinska 85, Gornje Vratno;Cestica;42208;46.3613857;16.1391953
HR 3230 EU;KULIN - DELIĆ d.o.o.;Braće Radića 168;Babina Greda;32276;45.1161163;18.5369572
HR 3232 EU;RIBARSKI OBRT MOĆUN;Kaljskih ribara i pomoraca 26;Kali;23272;44.0646871;15.2100651
HR 3238 EU;MESOTRGOVINA RIJEKA d.o.o.;Marinići 190;Viškovo;51216;45.3617549;14.3934207
HR 3239 EU;ANTE PRANIĆ;Ravča 60a;Vrgorac;21276;43.2082781;17.3156388
HR 3240 EU;PRŠUTANA MARE d.o.o.;Briševo, Gradska ulica 2;Zadar;23000;44.1168594;15.2353257
HR 3245 EU;ROBERT PERHOČ;Jurovčak 57A;Sveti Martin na Muri;40313;46.4974404;16.3224529
HR 3246 EU;KANDIT d.o.o.;Vukovarska cesta 239;Osijek;31000;45.5299874;18.7752467
HR 3247 EU;PETAR DOBROVAC;Glavna 11;Kneževi Vinogradi;31309;45.7541665;18.7404641
HR 3251 EU;DAMJAN BUKVIĆ;Malica 72;Zadubravlje;35211;45.1629806;18.1586361
HR 3254 EU;TRGOCENTAR d.o.o.;Vrankovec b.b.;Sveti Križ Začretje;49223;46.0800162;15.9067264
HR 3258 EU;ROTO DINAMIC d.o.o.;Murvica jug 1/a;Zadar;23000;44.1307979;15.2969140
HR 326 EU;HRVATSKE ŠUME d.d. Šumarija Đakovo;Lovište Mačkovac;Đakovo;31400;45.3080745;18.4116376
HR 3260 EU;VIKTOR PFEIFER;Kolodvorska 29;Donji Miholjac;31540;45.7596201;18.1654440
HR 3262 EU;ŠIMIĆ COMPANY d.o.o.;Slavonska avenija 26/8;Zagreb;10000;45.7939669;15.9650328
HR 3268 EU;Obrt za trgovinu i ugostiteljstvo CRNIĆ, vlasnik Kristina Miloš;Pilanska cesta 5;Mrkopalj;51315;45.3154497;14.8557128
HR 3272 EU;ROTO DINAMIC d.o.o.;Šijana, Industrijska cesta 2a;Pula;52100;44.8702281;13.8455311
HR 3273 EU;BRANKO KVEŽ;Sekirišće 78;Sveti Križ Začretje;49223;46.0800162;15.9067264
HR 3277 EU;HLAM d.o.o.;17. travnja 3;Punat;51521;45.0248787;14.6295985
HR 3279 EU;RIBARSKA ZADRUGA ADRIA;Jurjevgradska 6;Tribunj;22212;43.7526754;15.7499635
HR 328 EU;PAŠKA SIRANA d.d.;Splitska b.b.;Pag;23250;44.4437608;15.0545217
HR 3280 EU;KAUFLAND HRVATSKA k.d.;Gospodarska ulica 2;Jastrebarsko;10450;45.6527726;15.6799118
HR 3281 EU;SLAVONIJA JAJE d.o.o.;Bijele Klade 10;Vuka;31403;45.4571010;18.5145203
HR 3285 EU;ROTO DINAMIC d.o.o.;Velimira Škorpika 23;Šibenik;22000;43.7134229;15.9126308
HR 3288 EU;ZAGREBAČKE PEKARNE KLARA d.d.;Utinjska 48;Zagreb;10000;45.7684563;15.9542018
HR 3289 EU;OSTREA d.o.o.;Mate Vlašića 26/27 k.č. 4027/15;Poreč;52440;45.2271961;13.5957333
HR 3293 EU;BRAĆA PUTINJA, zajednički obrt za morski ribolov, Marko Putinja i Erik Putinja;Šetalište Vladimira Gortana;Umag;52471;45.4399664;13.5228750
HR 3300 EU;METRO CASH & CARRY d.o.o.;Gospodarska 35;Varaždin;42000;46.2946054;16.3540419
HR 3301 EU;MIŠLOV d.o.o.;Grabi 44;Poličnik;23241;44.1712163;15.3611930
HR 3303 EU;ANIKA d.o.o. - brod SIPAR;Šetalište Vladimira Gortana;Umag;52471;45.4399664;13.5228750
HR 3309 EU;GOF j.d.o.o. - brod KATARINA;Luka Umag;Umag;52472;45.4323587;13.5224098
HR 3311 EU;RALU LOGISTIKA d.d.;Gospodarska 11;Rugvica;10370;45.7709090;16.2279348
HR 3313 EU;DAVID d.o.o.;Luka Novigrad;Novigrad;52466;45.3159178;13.5630277
HR 3314 EU;EURO PIZZA d.o.o.;Krculi, Galanti 11g;Žminj;52351;45.1439098;13.9086751
HR 3316 EU;MLINAR pekarska industrija d.o.o.;M. Divalta 322;Osijek;31000;45.5548793;18.6953685
HR 3319 EU;TRGOVINA KRK d.d.;Sveti Vid Miholjice 202;Malinska;51511;45.1286163;14.5419046
HR 3320 EU;TRADICIONALNA HRANA d.o.o.;Mikulići 102;Zagreb;10000;45.8376835;15.9281704
HR 3323 EU;STRUČIĆ trgovački obrt;Antuna Mihanovića 4;Križevci;48260;46.0267239;16.5387689
HR 3324 EU;MORSKI RIBOLOV -SPITZ GIANNI;Luka Karigador;Novigrad;52466;45.3159178;13.5630277
HR 3325 EU;MORSKI RIBOLOV ŠKOLJKA;Luka Karigador;Novigrad;52466;45.3159178;13.5630277
HR 3326 EU;LUCUJA, obrt za morski ribolov, vl.  Matteo  Udovicich;Luka Novigrad;Novigrad;52466;45.3159178;13.5630277
HR 3327 EU;JANA DORY TRADE d.o.o.;Krasica 44 A;Buje;52460;45.4083871;13.6587529
HR 3329 EU;MORSKI RIBOLOV - ALEKSANDAR GOJTAN;Karigador, Punta 64a;Novigrad;52466;45.3159178;13.5630277
HR 3331 EU;OPG VEKO, Davor Kuterovac;N. Tesle 41 a;Vinkovci;32100;45.2883771;18.8045248
HR 3332 EU;KONZUM plus d.o.o.;Mate Vlašića 49;Poreč;52440;45.2306988;13.6196551
HR 3333 EU;SLAĐAN NOVOSEL;Kralja Zvonimira 31;Gat;31554;45.6985172;18.3248355
HR 3334 EU;STANIĆ d.o.o.;Dr. Oresta Žunkovića 9;Hvar;21450;43.1768898;16.4262759
HR 3338 EU;RAVING, obrt za građevinske usluge;Ravča 45;Vrgorac;21276;43.2082781;17.3156388
HR 3339 EU;Mladen Kuhar;Cerje Letovaničko 21;Lekenik;44272;45.5589609;16.1430135
HR 3340 EU;Klaonica CESARICA br. 802, vl. Robert Čačić;Ostrvica 58;Lički Osik;53201;44.6027457;15.4103756
HR 3341 EU;IREKS AROMA d.o.o.;Trešnjevka 24;Jastrebarsko;10450;45.6716565;15.6503928
HR 3343 EU;Šestak, obrt za proizvodnju sira i trgovinu;Plešivica 5;Jastrebarsko;10450;45.7152429;15.6440734
HR 3346 EU;ADRIATIC FARMING d.o.o.;Poslovna zona Lonići;Bibinje;23205;44.0880092;15.2885364
HR 3347 EU;DELMINIUM d.o.o.;Đakovečka 50;Stari Mikanovci;32284;45.2702600;18.5486923
HR 3348 EU;OPSKRBA TRADE d.o.o.;Barakovićeva 31;Split;21000;43.5068615;16.4517435
HR 3349 EU;FERMOPROMET d.o.o.;II Resnički gaj 10;Zagreb;10000;45.8087103;16.0641207
HR 3349-1 EU;LARETO GRUPA d.o.o.;II Resnički gaj 10;Zagreb;10000;45.8087103;16.0641207
HR 3350 EU;MONTE GLOBAL d.o.o.;Kaštanjež 16a;Banjole;52203;44.8250357;13.8617260
HR 3351 EU;Obrt za poljoprivrednu proizvodnju, uzgoj i trgovinu VRHOVEC, vl. Stjepan Vrhovec;Herendići 4, Pluska;Luka;10296;45.9650775;15.8012592
HR 3354 EU;PRODAN TARTUFI;Praščari 43;Buzet;52420;45.4078767;13.9655905
HR 3355 EU;DANIJEL LOVRENČIĆ;Palovec, Čakovečka 14;Mala Subotica;40321;46.3758853;16.5295559
HR 3357 EU;METRO CASH & CARRY d.o.o.;Čibača, Tomislava Macana 2;Mlini;20207;42.6302946;18.1634005
HR 3358 EU;CANICULA d.o.o.;Gizdavac, Radna zona Prisike 1/8;Donji Muć;20203;43.6948611;16.4601373
HR 3359 EU;NIKOPEK d.o.o.;Stari Skucani 42;Kapela;43203;45.9675889;16.8454646
HR 3361 EU;ŠKOKIĆ d.o.o.;Kamen, 4. gardijske 51;Split;21000;43.5116383;16.4399659
HR 3361-1 EU;NICE TO MEAT YOU d.o.o.;Kamen, 4. gardijske 51;Split;21000;43.5116383;16.4399659
HR 3361-2 EU;MUSCULUS CARO d.o.o.;Kamen, 4. gardijske 51;Split;21000;43.5116383;16.4399659
HR 3363 EU;PERT d.o.o.;Tina Ujevića 11/a;Rijeka;51000;45.3528674;14.3713050
HR 3365 EU;VIOLETA d.o.o. za proizvodnju, trgovinu i usluge;Gospodarska zona Kukuzovac, Turjaci 349;Sinj;21230;43.7054647;16.6337535
HR 3366 EU;FILIP d.o.o.;Mlinska 15;Metković;20350;43.0544730;17.6566315
HR 3367 EU;METRO CASH & CARRY d.o.o.;Cesta pape Ivana Pavla II 3;Kaštel Sućurac;21212;43.5439628;16.4529647
HR 3369 EU;MARIO KUZMANIĆ;Hrvatskih žrtava 2;Supetar;21400;43.3836440;16.5460019
HR 3371 EU;Obrt PLODOVI MORA;Ušće rijeke Krke;Šibenik;22000;43.7340647;15.8944767
HR 3372 EU;AGRO MALEŠ d.o.o.;Bana Josipa Jelačića 78;Šibenik;22000;43.7451015;15.8968735
HR 3376 EU;OREGON d.o.o.;Marinići 176;Viškovo;51216;45.3617549;14.3934207
HR 3377 EU;ŽITO d.d.;Prstenova ulica 4;Čepin;31431;45.5008631;18.5621752
HR 3378 EU;ARGOLA, obrt za ribarstvo, trgovinu i ugostiteljstvo;Put Radići 1;Malinska;51511;45.1221997;14.5346839
HR 3380 EU;TRILJA, vl. Bojana Diklić;Milutina Barača 19;Rijeka;51000;45.3353179;14.4095022
HR 3382 EU;ŠPANMES, obrt za preradu i trgovinu mesa, vlasnik Tomislav Španec;Zagrebačka 2a;Gornja Stubica;49245;45.9798878;16.0122778
HR 3383 EU;HISTRIS KVALITETA d.o.o.;Dajčići 97;Sveti Petar u Šumi;52404;45.1816824;13.8641100
HR 3384 EU;MESNICA NORŠIĆ, obrt za trgovinu, vl. Željko Noršić;Bobovica 42;Samobor;10430;45.8281777;15.7206316
HR 3386 EU;LEDO plus d.o.o.;Poslovna zona Murvica jug 12;Poličnik;23241;44.1743038;15.3784633
HR 3387 EU;PP ORAHOVICA d.o.o.;Braće Radića 28 A;Čačinci;33514;45.6086971;17.8678961
HR 3388 EU;ŽITO d.d.;Prstenova ulica 8;Čepin;31431;45.5008631;18.5621752
HR 3389 EU;LAGERMAX LOGISTICS CROATIA d.o.o.;Kukuljanovo 410;Kukuljanovo;51227;45.3271600;14.5087019
HR 3391 EU;LESAFFRE ADRIATIC d.o.o.;Prudnička 98;Prigorje Brdovečko;10291;45.8782828;15.7361749
HR 3393 EU;METRO CASH & CARRY d.o.o.;Fascinska b.b.;Poreč;52440;45.2271961;13.5957333
HR 3394 EU;GASTRO LINE d.o.o.;Bilice II broj 25f, Mejaši;Split;21000;43.5116383;16.4399659
HR 3397 EU;ŠUŠKAVCI d.o.o.;Brnčići 21/A, Bregi;Matulji;51211;45.3636807;14.3244359
HR 3398 EU;MARTINA KOLAČEVIĆ;Kalinovača 46;Donje Pazarište;53213;44.6469162;15.1953905
HR 3399 EU;ŽITO d.d.;Prstenova ulica 6;Čepin;31431;45.5008631;18.5621752
HR 3400 EU;KALAJ USLUGE d.o.o.;Obreška cesta 96;Novi Zagreb;10020;45.7667214;15.9463914
HR 3401 EU;GERBER MD d.o.o.;Ive Politea 66;Sesvetski Kraljevec;10361;45.8126308;16.1650852
HR 3404 EU;TEŠI TUNOLOV d.o.o.;Grabi 60;Poličnik;23241;44.1712163;15.3611930
HR 3405 EU;VRDOLJAK, obrt za trgovinu, vl. Jure Vrdoljak;Slivno 73;Slivno;21272;43.3453717;17.2044091
HR 3409 EU;SIRANA MILKA j.d.o.o.;Stara cesta 112;Duga Resa;47250;45.4489391;15.4965468
HR 3411 EU;MILAN UDOVIČIĆ;Supetarska ulica 3;Žminj;52351;45.1439098;13.9086751
HR 3413 EU;AUDENTES d.o.o.;Zavojane 21a;Vrgorac;21276;43.1997457;17.3825793
HR 3414 EU;ANTE ŽIGO;Lučane 80;Sinj;21230;43.7408495;16.5549793
HR 3416 EU;ZVONKO ARIĆ;Bana Ivana Mažuranića 27;Nova Gradiška;53400;45.2579750;17.3990040
HR 3419 EU;Mesnica RANOGAJEC;65. Bataljuna ZNG 47;Ivanić Grad;10310;45.7007138;16.4042786
HR 3420 EU;MESNICA MARKO, obrt za trgovinu, vl. Marko Noršić;Mala Jazbina 5c;Bregana;10432;45.8382973;15.6881481
HR 3426 EU;PO GRGO, vl. Kristina Musić;Lišane Ostrovičke 1a, Lišane;Benkovac;23420;44.0333553;15.6128513
HR 3429 EU;Obrt za poljoprivrednu proizvodnju i usluge, vl. Katarina Jurkas;Bregovita 2, Harmica;Šenkovec;10292;45.8903120;15.6949610
HR 343 EU;OPG DARIO ŠIMONOVIĆ;Jadruhi 11;Vižinada;52447;45.3006662;13.7501795
HR 3430 EU;A. D. M., vl. Martino Samardžić;Gospodarska zon Laminska;Štefanje;43246;45.8055286;16.7172376
HR 3433 EU;K TRŽNICI, vl. Sadik Beljuli;Primorska 12;Karlovac;47000;45.4922318;15.5378008
HR 3434 EU;ŽITO d.d.;Prstenova ulica 2;Čepin;31431;45.5008631;18.5621752
HR 3435 EU;PIK VRBOVEC plus d.o.o.;Dubrovačka 4;Dugopolje;21204;43.5914569;16.5654803
HR 3436 EU;BOBANAC, obrt za sušenje mesa, Mirko Bobanac;Kljenak 34;Kljenak;21276;43.1968688;17.2681556
HR 3437 EU;AMERICAN DONUT d.o.o.;Savska 2a;Sesvete;10360;45.8128552;16.1178961
HR 3439 EU;Obrt TOŠE , vl. Snježana Tošeski;Rezovački vinogradi 1/2;Virovitica;33000;45.7965044;17.4023732
HR 3441 EU;BADANJ KOMERC d.o.o.;Prisike III br. 21;Gizdavac;21247;43.6542344;16.4773679
HR 3443 EU;KULINA NOVA SELA d.o.o.;Kulina 17;Nova Sela;20278;43.1015971;17.5592472
HR 3444 EU;JOSIP PETEK;Radakovo 81;Kraljevec na Sutli;49294;45.9908956;15.7228259
HR 3445 EU;MESNA INDUSTRIJA NATURA d.o.o.;Ulica grada Vukovara 60;Đurđevac;48350;46.0282232;17.0726201
HR 3446 EU;HRŠAK, obrt za proizvodnju, usluge i trgovinu, vl.Mladen Hršak;M. Roth Hrestak 2/1;Pregrada;49218;46.1627282;15.7523888
